name,lat,lon,province,district,reference
Vásquez,-4.31436831829395,-73.4563655460971,Loreto,Nauta,"VERA VEREAU, Melina Maribel; y, Rafael CABANILLAS CALDERÓN. 2006. Inventario y registro del Patrimonio Cultural de la Nación: Región Loreto. 136 pp. Informe Final presentado al Programa Qhapaq Ñan. Iquitos, Perú."
Buena Unión,-4.2941266838404,-73.4375333486481,Loreto,Nauta,"VERA VEREAU, Melina Maribel; y, Rafael CABANILLAS CALDERÓN. 2006. Inventario y registro del Patrimonio Cultural de la Nación: Región Loreto. 136 pp. Informe Final presentado al Programa Qhapaq Ñan. Iquitos, Perú."
Aquituare (San Joaquín de Omaguas),-4.28539160216755,-73.4291552535684,Loreto,Nauta,"VERA VEREAU, Melina Maribel; y, Rafael CABANILLAS CALDERÓN. 2006. Inventario y registro del Patrimonio Cultural de la Nación: Región Loreto. 136 pp. Informe Final presentado al Programa Qhapaq Ñan. Iquitos, Perú."
Iwatara Ritama Kana,-4.312019807071628,-73.45258073474876,Loreto,Nauta,"VICENTE HUAMANÍ, Rúlfer. 2012. Identificación y delimitación de zonas culturales intangibles. Informe enmarcado dentro del proyecto: “Saneamiento y Titulación de Predios Rurales, para el Desarrollo Alternativo, Integral y Sostenible”. GOREL / DEVIDA. Iquitos, Perú."
Warika - Buena Union,-4.293157217872856,-73.43623900298607,Loreto,Nauta,"VICENTE HUAMANÍ, Rúlfer. 2012. Identificación y delimitación de zonas culturales intangibles. Informe enmarcado dentro del proyecto: “Saneamiento y Titulación de Predios Rurales, para el Desarrollo Alternativo, Integral y Sostenible”. GOREL / DEVIDA. Iquitos, Perú."
Paranasima – Nueva Esperanza,-4.235243114510824,-73.37537294994915,Loreto,Nauta,"VICENTE HUAMANÍ, Rúlfer. 2012. Identificación y delimitación de zonas culturales intangibles. Informe enmarcado dentro del proyecto: “Saneamiento y Titulación de Predios Rurales, para el Desarrollo Alternativo, Integral y Sostenible”. GOREL / DEVIDA. Iquitos, Perú."
San Regis,-4.512677310575827,-73.90567799553561,Loreto,Nauta,"VICENTE HUAMANÍ, Rúlfer. 2012. Identificación y delimitación de zonas culturales intangibles. Informe enmarcado dentro del proyecto: “Saneamiento y Titulación de Predios Rurales, para el Desarrollo Alternativo, Integral y Sostenible”. GOREL / DEVIDA. Iquitos, Perú."
Tuyuka Pata o 23 de Junio,-4.542146000523689,-73.85883736121883,Loreto,Nauta,"VICENTE HUAMANÍ, Rúlfer. 2012. Identificación y delimitación de zonas culturales intangibles. Informe enmarcado dentro del proyecto: “Saneamiento y Titulación de Predios Rurales, para el Desarrollo Alternativo, Integral y Sostenible”. GOREL / DEVIDA. Iquitos, Perú. // MALLCO HUARCAYA, Rafael. 2016. Identificación y registro de sitios y zonas culturales intangibles de interés cultural en los ríos Pastaza, Tigre, Corrientes y Marañón, en el marco del Proyecto de ampliación del servicio de Catastro, Titulación y Registro de Tierras en las comunidades nativas de las cuencas de los ríos Pastaza, Tigre, Corrientes y Marañón, de las Provincias de Datem del Marañón y Loreto, región Loreto, con Código SNIP 316426. 208 pp. Informe Final presentado al Proyecto Titulación 4 Cuencas (Código SNIP 316426), Dirección Regional Agraria de Loreto, Gerencia de Desarrollo Económico – Gobierno Regional de Loreto. Iquitos, Perú."
Villa Cruzadores,-4.568629243528871,-73.78700459706648,Loreto,Nauta,"VICENTE HUAMANÍ, Rúlfer. 2012. Identificación y delimitación de zonas culturales intangibles. Informe enmarcado dentro del proyecto: “Saneamiento y Titulación de Predios Rurales, para el Desarrollo Alternativo, Integral y Sostenible”. GOREL / DEVIDA. Iquitos, Perú. // MALLCO HUARCAYA, Rafael. 2016. Identificación y registro de sitios y zonas culturales intangibles de interés cultural en los ríos Pastaza, Tigre, Corrientes y Marañón, en el marco del Proyecto de ampliación del servicio de Catastro, Titulación y Registro de Tierras en las comunidades nativas de las cuencas de los ríos Pastaza, Tigre, Corrientes y Marañón, de las Provincias de Datem del Marañón y Loreto, región Loreto, con Código SNIP 316426. 208 pp. Informe Final presentado al Proyecto Titulación 4 Cuencas (Código SNIP 316426), Dirección Regional Agraria de Loreto, Gerencia de Desarrollo Económico – Gobierno Regional de Loreto. Iquitos, Perú."
Unqu Mayu,-4.57061967993953,-73.78202595919834,Loreto,Nauta,"VICENTE HUAMANÍ, Rúlfer. 2012. Identificación y delimitación de zonas culturales intangibles. Informe enmarcado dentro del proyecto: “Saneamiento y Titulación de Predios Rurales, para el Desarrollo Alternativo, Integral y Sostenible”. GOREL / DEVIDA. Iquitos, Perú."
Villa Cristiana,-4.572717609402731,-73.776461260545,Loreto,Nauta,"VICENTE HUAMANÍ, Rúlfer. 2012. Identificación y delimitación de zonas culturales intangibles. Informe enmarcado dentro del proyecto: “Saneamiento y Titulación de Predios Rurales, para el Desarrollo Alternativo, Integral y Sostenible”. GOREL / DEVIDA. Iquitos, Perú. // MALLCO HUARCAYA, Rafael. 2016. Identificación y registro de sitios y zonas culturales intangibles de interés cultural en los ríos Pastaza, Tigre, Corrientes y Marañón, en el marco del Proyecto de ampliación del servicio de Catastro, Titulación y Registro de Tierras en las comunidades nativas de las cuencas de los ríos Pastaza, Tigre, Corrientes y Marañón, de las Provincias de Datem del Marañón y Loreto, región Loreto, con Código SNIP 316426. 208 pp. Informe Final presentado al Proyecto Titulación 4 Cuencas (Código SNIP 316426), Dirección Regional Agraria de Loreto, Gerencia de Desarrollo Económico – Gobierno Regional de Loreto. Iquitos, Perú."
Ipuku,-4.49729896799055,-73.56616925469042,Loreto,Nauta,"VICENTE HUAMANÍ, Rúlfer. 2012. Identificación y delimitación de zonas culturales intangibles. Informe enmarcado dentro del proyecto: “Saneamiento y Titulación de Predios Rurales, para el Desarrollo Alternativo, Integral y Sostenible”. GOREL / DEVIDA. Iquitos, Perú."
Ukara,-4.461133217855188,-73.53009658756234,Loreto,Nauta,"VICENTE HUAMANÍ, Rúlfer. 2012. Identificación y delimitación de zonas culturales intangibles. Informe enmarcado dentro del proyecto: “Saneamiento y Titulación de Predios Rurales, para el Desarrollo Alternativo, Integral y Sostenible”. GOREL / DEVIDA. Iquitos, Perú."
Sara Goza,-4.470901645583049,-73.59516483956159,Loreto,Nauta,"VICENTE HUAMANÍ, Rúlfer. 2012. Identificación y delimitación de zonas culturales intangibles. Informe enmarcado dentro del proyecto: “Saneamiento y Titulación de Predios Rurales, para el Desarrollo Alternativo, Integral y Sostenible”. GOREL / DEVIDA. Iquitos, Perú."
Gasparito,-4.470897198505657,-73.59284894524974,Loreto,Nauta,"VICENTE HUAMANÍ, Rúlfer. 2012. Identificación y delimitación de zonas culturales intangibles. Informe enmarcado dentro del proyecto: “Saneamiento y Titulación de Predios Rurales, para el Desarrollo Alternativo, Integral y Sostenible”. GOREL / DEVIDA. Iquitos, Perú."
Santa Rita,-4.564806552197872,-73.66653505800738,Loreto,Nauta,"VICENTE HUAMANÍ, Rúlfer. 2012. Identificación y delimitación de zonas culturales intangibles. Informe enmarcado dentro del proyecto: “Saneamiento y Titulación de Predios Rurales, para el Desarrollo Alternativo, Integral y Sostenible”. GOREL / DEVIDA. Iquitos, Perú."
Nueve de Octubre,-4.572147747610829,-73.69447941391253,Loreto,Nauta,"VICENTE HUAMANÍ, Rúlfer. 2012. Identificación y delimitación de zonas culturales intangibles. Informe enmarcado dentro del proyecto: “Saneamiento y Titulación de Predios Rurales, para el Desarrollo Alternativo, Integral y Sostenible”. GOREL / DEVIDA. Iquitos, Perú."
Yame Pata,-4.5706173170918225,-73.73371563913618,Loreto,Nauta,"VICENTE HUAMANÍ, Rúlfer. 2012. Identificación y delimitación de zonas culturales intangibles. Informe enmarcado dentro del proyecto: “Saneamiento y Titulación de Predios Rurales, para el Desarrollo Alternativo, Integral y Sostenible”. GOREL / DEVIDA. Iquitos, Perú."
Yarina del Yanayacu,-4.742333397890686,-73.98326670420609,Loreto,Nauta,"RIVAS PANDURO, Santiago. 2010. Informe de viaje realizado a la Reserva Pacaya Samiria. 8 pp. Manuscrito. Iquitos, Perú."
Ayahuascal,-4.72131068867658,-74.278521468127,Loreto,Parinari,"MORALES CHOCANO, Daniel. 2002. Contactos entre cocamas y shipibos: un acercamiento arqueológico a la Amazonía peruana. pp. 47-70. Investigaciones Sociales, Año 6, N°10. UNMSM. Lima, Perú."
Chambira,-4.71318477165494,-74.311610872051,Loreto,Parinari,"MORALES CHOCANO, Daniel. 2002. Contactos entre cocamas y shipibos: un acercamiento arqueológico a la Amazonía peruana. pp. 47-70. Investigaciones Sociales, Año 6, N°10. UNMSM. Lima, Perú."
Salvavidas del Uiuri,-4.72612476498363,-74.4145592252906,Loreto,Parinari,"RIVAS PANDURO, Santiago. 2010. Informe de viaje realizado a la Reserva Pacaya Samiria. 8 pp. Manuscrito. Iquitos, Perú."
PV 4 Pithecia,-5.2113835521228,-74.6692253916265,Loreto,Parinari,"RIVAS PANDURO, Santiago. 2010. Informe de viaje realizado a la Reserva Pacaya Samiria. 8 pp. Manuscrito. Iquitos, Perú. (Testimonio oral a Santiago Rivas Panduro de José Grocio Gil Navarro, 2010, Jefe de la Reserva Nacional Pacaya Samiria)"
PV 5 Santa Elena,-5.2357625955142,-74.8228381843179,Loreto,Parinari,"RIVAS PANDURO, Santiago. 2010. Informe de viaje realizado a la Reserva Pacaya Samiria. 8 pp. Manuscrito. Iquitos, Perú. (Testimonio oral a Santiago Rivas Panduro de José Grocio Gil Navarro, 2010, Jefe de la Reserva Nacional Pacaya Samiria)"
PV 7 Camonal o Camotal,-5.20593276252981,-75.4419144318284,Loreto,Parinari,"RIVAS PANDURO, Santiago. 2010. Informe de viaje realizado a la Reserva Pacaya Samiria. 8 pp. Manuscrito. Iquitos, Perú. (Oral testimony to Santiago Rivas Panduro from José Grocio Gil Navarro, 2010, Jefe de la Reserva Nacional Pacaya Samiria)"
PV 8 Tibilo,-5.23746759838089,-75.5954494808281,Loreto,Parinari,"RIVAS PANDURO, Santiago. 2010. Informe de viaje realizado a la Reserva Pacaya Samiria. 8 pp. Manuscrito. Iquitos, Perú. (Oral testimony to Santiago Rivas Panduro from José Grocio Gil Navarro, 2010, Jefe de la Reserva Nacional Pacaya Samiria)"
Nolo del Parinari,-4.65324896399544,-74.6284962806902,Loreto,Parinari,"RIVAS PANDURO, Santiago. 2010. Informe de viaje realizado a la Reserva Pacaya Samiria. 8 pp. Manuscrito. Iquitos, Perú. (Oral testimony to Santiago Rivas Panduro from José Grocio Gil Navarro, 2010, Jefe de la Reserva Nacional Pacaya Samiria)"
Zapotal,-4.734583004821295,-74.25464987185471,Loreto,Parinari,"MORALES CHOCANO, Daniel. 2002. Contactos entre cocamas y shipibos: un acercamiento arqueológico a la Amazonía peruana. pp. 47-70. Investigaciones Sociales, Año 6, N°10. UNMSM. Lima, Perú."
Carmen 2,-2.3953326993663664,-76.28285722764385,Loreto,Tigre,"ABANTO LLAQUE, Julio. 2004. Evaluación arqueológica sin excavaciones en el Lote 1-AB. Zonas: Carmen, Jíbaro N.O. y Tambo. 26 pp. Informe presentado al Instituto Nacional de Cultura. Lima, Perú. // ABANTO LLAQUE, Julio. 2005 a. Proyecto de evaluación arqueológica para la delimitación de los sitios: Alianza Topal y Capahuari, y plan de monitoreo arqueológico para los sectores Carmen y Jíbaro N.O. Lote 1-AB. Primera parte: Informe de la delimitación de los sitios Alianza Topal y Capahuari. 60 pp. Informe presentado al Instituto Nacional de Cultura. Lima, Perú. // ABANTO LLAQUE, Julio. 2005 b. Proyecto de evaluación arqueológica para la delimitación de los sitios: Alianza Topal y Capahuari, y plan de monitoreo arqueológico para los sectores Carmen y Jíbaro N.O. Lote 1-AB. Segunda parte: Informe del plan de monitoreo arqueológico para el programa de estudio y exploraciones de Sísmica 3D, en el Lote 1 AB, Sector: Carmen. 64 pp. Informe presentado al Instituto Nacional de Cultura. Lima, Perú. // ABANTO LLAQUE, Julio. 2005 c. Proyecto de evaluación arqueológica para la delimitación de los sitios: Alianza Topal y Capahuari, y plan de monitoreo arqueológico para los sectores Carmen y Jíbaro N.O. Lote 1-AB. Informe de la ficha técnica, memoria descriptiva y planos de sitios delimitados. 14 pp. Informe presentado al Instituto Nacional de Cultura. Lima, Perú."
Florestal,-2.46014116285089,-76.1365941876344,Loreto,Tigre,"PLUS PETROL NORTE SA & WALSH PERÚ SA. 2007. Mapa de sitios arqueológicos del proyecto EIA Proyecto 20 Pozos de Desarrollo y Construcción de Facilidades de Producción Lote 1AB. Datum WGS 84, Zona 18 S, Escala 1/600 000"
Piura,-4.11544421265742,-74.4134706202439,Loreto,Tigre,"ENVIRONMENTAL RESOURCES MANAGEMENT – ERM PERÚ S.A. 2007.  Estudio de Impacto Ambiental y Social de la Prospección Sísmica 2D de 445 Km en el Lote 104. Capítulo IV: Línea Base Social. 302 pp. Lima, Perú. // MALLCO HUARCAYA, Rafael. 2016. Identificación y registro de sitios y zonas culturales intangibles de interés cultural en los ríos Pastaza, Tigre, Corrientes y Marañón, en el marco del Proyecto de ampliación del servicio de Catastro, Titulación y Registro de Tierras en las comunidades nativas de las cuencas de los ríos Pastaza, Tigre, Corrientes y Marañón, de las Provincias de Datem del Marañón y Loreto, región Loreto, con Código SNIP 316426. 208 pp. Informe Final presentado al Proyecto Titulación 4 Cuencas (Código SNIP 316426), Dirección Regional Agraria de Loreto, Gerencia de Desarrollo Económico – Gobierno Regional de Loreto. Iquitos, Perú."
Río Tigre 1 o Providencia,-3.5020732581922296,-74.7451222181351,Loreto,Tigre,"FIERRO HUATUCO, Koraíta. 2011. Plan de Monitoreo Arqueológico del Programa Exploratorio de los lotes 129, 123 y 124. Departamento de Loreto. 109 pp. Informe Final presentado al Ministerio de Cultura. Lima, Perú. // CHUMPITAZ LLERENA, Daniel. 2011. Proyecto de Evaluación Arqueológica del Campamento Base Providencia y del Campamento Volante 07. Lote 123. Derivado del Plan de Monitoreo Arqueológico del Programa Exploratorio de los lotes 129, 123 y 124. Departamento de Loreto. 153 pp. Informe Final presentado al Ministerio de Cultura. Lima, Perú. // MALLCO HUARCAYA, Rafael. 2016. Identificación y registro de sitios y zonas culturales intangibles de interés cultural en los ríos Pastaza, Tigre, Corrientes y Marañón, en el marco del Proyecto de ampliación del servicio de Catastro, Titulación y Registro de Tierras en las comunidades nativas de las cuencas de los ríos Pastaza, Tigre, Corrientes y Marañón, de las Provincias de Datem del Marañón y Loreto, región Loreto, con Código SNIP 316426. 208 pp. Informe Final presentado al Proyecto Titulación 4 Cuencas (Código SNIP 316426), Dirección Regional Agraria de Loreto, Gerencia de Desarrollo Económico – Gobierno Regional de Loreto. Iquitos, Perú."
Intutillo 1,-3.5165171482720825,-74.85199020268574,Loreto,Tigre,"FIERRO HUATUCO, Koraíta. 2011. Plan de monitoreo arqueológico del programa Exploratorio de los Lotes 129, 123 y 124. Departamento de Loreto. 109 pp. Informe Final presentado al Ministerio de Cultura. Lima, Perú."
Aucayacu 1,-3.5568148180576644,-74.97808432422005,Loreto,Tigre,"FIERRO HUATUCO, Koraíta. 2011. Plan de monitoreo arqueológico del programa exploratorio de los Lotes 129, 123 y 124. Departamento de Loreto. 109 pp. Informe Final presentado al Ministerio de Cultura. Lima, Perú."
Bolognesi,-3.34145102917735,-75.0330821624639,Loreto,Tigre,"MORALES CHOCANO, Daniel. 2002. Investigaciones arqueológicas en el Distrito de Tigre (Provincia de Loreto) y Las Amazonas (Provincia de Maynas). 40 pp. Informe presentado al Instituto Nacional de Cultura. Lima, Perú."
Lamas Tipishca (Nuevo Canaan),-2.82086052339109,-75.4251496082676,Loreto,Tigre,"MORALES CHOCANO, Daniel. 2002. Investigaciones arqueológicas en el Distrito de Tigre (Provincia de Loreto) y Las Amazonas (Provincia de Maynas). 40 pp. Informe presentado al Instituto Nacional de Cultura. Lima, Perú. // ENVIRONMENTAL RESOURCES MANAGEMENT – ERM PERÚ S.A. 2007.  Estudio de Impacto Ambiental y Social de la Prospección Sísmica 2D de 445 Km en el Lote 104. Capítulo IV: Línea Base Social. 302 pp. Lima, Perú."
Bellavista,-4.02685550586301,-74.3685651399635,Loreto,Tigre,"MORALES CHOCANO, Daniel. 2002. Investigaciones arqueológicas en el Distrito de Tigre (Provincia de Loreto) y Las Amazonas (Provincia de Maynas). 40 pp. Informe presentado al Instituto Nacional de Cultura. Lima, Perú."
San Jorge,-3.94564561961315,-74.3105206192822,Loreto,Tigre,"MORALES CHOCANO, Daniel. 2002. Investigaciones arqueológicas en el Distrito de Tigre (Provincia de Loreto) y Las Amazonas (Provincia de Maynas). 40 pp. Informe presentado al Instituto Nacional de Cultura. Lima, Perú."
Pavayacu,-3.6828008061896,-74.5752096612871,Loreto,Tigre,"MORALES CHOCANO, Daniel. 2002. Investigaciones arqueológicas en el Distrito de Tigre (Provincia de Loreto) y Las Amazonas (Provincia de Maynas). 40 pp. Informe presentado al Instituto Nacional de Cultura. Lima, Perú."
Santa Elena,-3.5130221785663,-74.6925481396624,Loreto,Tigre,"MORALES CHOCANO, Daniel. 2002. Investigaciones arqueológicas en el Distrito de Tigre (Provincia de Loreto) y Las Amazonas (Provincia de Maynas). 40 pp. Informe presentado al Instituto Nacional de Cultura. Lima, Perú. // MALLCO HUARCAYA, Rafael. 2016. Identificación y registro de sitios y zonas culturales intangibles de interés cultural en los ríos Pastaza, Tigre, Corrientes y Marañón, en el marco del Proyecto de ampliación del servicio de Catastro, Titulación y Registro de Tierras en las comunidades nativas de las cuencas de los ríos Pastaza, Tigre, Corrientes y Marañón, de las Provincias de Datem del Marañón y Loreto, región Loreto, con Código SNIP 316426. 208 pp. Informe Final presentado al Proyecto Titulación 4 Cuencas (Código SNIP 316426), Dirección Regional Agraria de Loreto, Gerencia de Desarrollo Económico – Gobierno Regional de Loreto. Iquitos, Perú."
Puerto Intuto,-3.48877394184398,-74.7792931187291,Loreto,Tigre,"MORALES CHOCANO, Daniel. 2002. Investigaciones arqueológicas en el Distrito de Tigre (Provincia de Loreto) y Las Amazonas (Provincia de Maynas). 40 pp. Informe presentado al Instituto Nacional de Cultura. Lima, Perú."
Alfonso Ugarte,-3.48673173655679,-74.7897193452556,Loreto,Tigre,"MORALES CHOCANO, Daniel. 2002. Investigaciones arqueológicas en el Distrito de Tigre (Provincia de Loreto) y Las Amazonas (Provincia de Maynas). 40 pp. Informe presentado al Instituto Nacional de Cultura. Lima, Perú. //MALLCO HUARCAYA, Rafael. 2016. Identificación y registro de sitios y zonas culturales intangibles de interés cultural en los ríos Pastaza, Tigre, Corrientes y Marañón, en el marco del Proyecto de ampliación del servicio de Catastro, Titulación y Registro de Tierras en las comunidades nativas de las cuencas de los ríos Pastaza, Tigre, Corrientes y Marañón, de las Provincias de Datem del Marañón y Loreto, región Loreto, con Código SNIP 316426. 208 pp. Informe Final presentado al Proyecto Titulación 4 Cuencas (Código SNIP 316426), Dirección Regional Agraria de Loreto, Gerencia de Desarrollo Económico – Gobierno Regional de Loreto. Iquitos, Perú."
Quebrada Intuto,-3.48913822634167,-74.789763826842,Loreto,Tigre,"MORALES CHOCANO, Daniel. 2002. Investigaciones arqueológicas en el Distrito de Tigre (Provincia de Loreto) y Las Amazonas (Provincia de Maynas). 40 pp. Informe presentado al Instituto Nacional de Cultura. Lima, Perú."
El Alto,-2.38474915784427,-75.803064221801,Loreto,Tigre,"MALLCO HUARCAYA, Rafael. 2016. Identificación y registro de sitios y zonas culturales intangibles de interés cultural en los ríos Pastaza, Tigre, Corrientes y Marañón, en el marco del Proyecto de ampliación del servicio de Catastro, Titulación y Registro de Tierras en las comunidades nativas de las cuencas de los ríos Pastaza, Tigre, Corrientes y Marañón, de las Provincias de Datem del Marañón y Loreto, región Loreto, con Código SNIP 316426. 208 pp. Informe Final presentado al Proyecto Titulación 4 Cuencas (Código SNIP 316426), Dirección Regional Agraria de Loreto, Gerencia de Desarrollo Económico – Gobierno Regional de Loreto. Iquitos, Perú."
La Punta - Pinshacocha,-2.4295860951297,-75.7969116565615,Loreto,Tigre,"MALLCO HUARCAYA, Rafael. 2016. Identificación y registro de sitios y zonas culturales intangibles de interés cultural en los ríos Pastaza, Tigre, Corrientes y Marañón, en el marco del Proyecto de ampliación del servicio de Catastro, Titulación y Registro de Tierras en las comunidades nativas de las cuencas de los ríos Pastaza, Tigre, Corrientes y Marañón, de las Provincias de Datem del Marañón y Loreto, región Loreto, con Código SNIP 316426. 208 pp. Informe Final presentado al Proyecto Titulación 4 Cuencas (Código SNIP 316426), Dirección Regional Agraria de Loreto, Gerencia de Desarrollo Económico – Gobierno Regional de Loreto. Iquitos, Perú."
28 de Julio,-3.47454763671303,-74.7993283852312,Loreto,Tigre,"MALLCO HUARCAYA, Rafael. 2016. Identificación y registro de sitios y zonas culturales intangibles de interés cultural en los ríos Pastaza, Tigre, Corrientes y Marañón, en el marco del Proyecto de ampliación del servicio de Catastro, Titulación y Registro de Tierras en las comunidades nativas de las cuencas de los ríos Pastaza, Tigre, Corrientes y Marañón, de las Provincias de Datem del Marañón y Loreto, región Loreto, con Código SNIP 316426. 208 pp. Informe Final presentado al Proyecto Titulación 4 Cuencas (Código SNIP 316426), Dirección Regional Agraria de Loreto, Gerencia de Desarrollo Económico – Gobierno Regional de Loreto. Iquitos, Perú."
Solima,-4.13297549743691,-74.4250080225651,Loreto,Tigre,"MALLCO HUARCAYA, Rafael. 2016. Identificación y registro de sitios y zonas culturales intangibles de interés cultural en los ríos Pastaza, Tigre, Corrientes y Marañón, en el marco del Proyecto de ampliación del servicio de Catastro, Titulación y Registro de Tierras en las comunidades nativas de las cuencas de los ríos Pastaza, Tigre, Corrientes y Marañón, de las Provincias de Datem del Marañón y Loreto, región Loreto, con Código SNIP 316426. 208 pp. Informe Final presentado al Proyecto Titulación 4 Cuencas (Código SNIP 316426), Dirección Regional Agraria de Loreto, Gerencia de Desarrollo Económico – Gobierno Regional de Loreto. Iquitos, Perú."
Gonzalo Tuy Tuy,-3.6806645901373964,-74.73525711738633,Loreto,Tigre,"MAC KAY FULLE, Martín; y, Rafaél SANTA CRUZ. 2009. Cuninico y Maipuco, dos sitios arqueológicos en el río Marañón. Pp. 57-73. Arqueología y Sociedad, N° 20. Lima, Perú."
Fundo Barranquita,-3.6854182641220845,-74.71910948960867,Loreto,Tigre,"MAC KAY FULLE, Martín; y, Rafaél SANTA CRUZ. 2009. Cuninico y Maipuco, dos sitios arqueológicos en el río Marañón. Pp. 57-73. Arqueología y Sociedad, N° 20. Lima, Perú."
Valencia,-3.12830292476876,-75.6746476124939,Loreto,Trompeteros,"RAVINES, Rogger. 1978-1980. Reconocimiento arqueológico en el río Corrientes, Nororiente del Perú. Pp. 111-138. Revista del Museo Nacional, Tomo XLIV. Lima, Perú. // MALLCO HUARCAYA, Rafael. 2016. Identificación y registro de sitios y zonas culturales intangibles de interés cultural en los ríos Pastaza, Tigre, Corrientes y Marañón, en el marco del Proyecto de ampliación del servicio de Catastro, Titulación y Registro de Tierras en las comunidades nativas de las cuencas de los ríos Pastaza, Tigre, Corrientes y Marañón, de las provincias de Datem del Marañón y Loreto, región Loreto, con Código SNIP 316426. 208 pp. Informe Final presentado al Proyecto Titulación 4 Cuencas (Código SNIP 316426), Dirección Regional Agraria de Loreto, Gerencia de Desarrollo Económico – Gobierno Regional de Loreto. Iquitos, Perú."
Platanoyacu,-3.12148100657443,-75.6760741585609,Loreto,Trompeteros,"RAVINES, Rogger. 1978-1980. Reconocimiento arqueológico en el río Corrientes, Nororiente del Perú. Pp. 111-138. Revista del Museo Nacional, Tomo XLIV. Lima, Perú."
Carmen 1,-2.413078929788779,-76.28287377748951,Loreto,Trompeteros,"ABANTO LLAQUE, Julio. 2004. Evaluación arqueológica sin excavaciones en el Lote 1-AB. Zonas: Carmen, Jíbaro N.O. y Tambo. 26 pp. Informe presentado al Instituto Nacional de Cultura. Lima, Perú. // ABANTO LLAQUE, Julio. 2005 a. Proyecto de evaluación arqueológica para la delimitación de los Sitios: Alianza Topal y Capahuari, y plan de monitoreo arqueológico para los Sectores Carmen y Jíbaro N.O. Lote 1-AB. Primera Parte: Informe de la delimitación de los Sitios Alianza Topal y Capahuari. 60 pp. Informe presentado al Instituto Nacional de Cultura. Lima, Perú. // ABANTO LLAQUE, Julio. 2005 b. Proyecto de evaluación arqueológica para la delimitación de los Sitios: Alianza Topal y Capahuari, y plan de monitoreo arqueológico para los Sectores Carmen y Jíbaro N.O. Lote 1-AB. Segunda Parte: Informe del plan de monitoreo arqueológico para el programa de estudio y exploraciones de sísmica 3D, en el Lote 1 AB, Sector: Carmen. 64 pp. Informe presentado al Instituto Nacional de Cultura. Lima, Perú. // ABANTO LLAQUE, Julio. 2005 c. Proyecto de evaluación arqueológica para la delimitación de los Sitios: Alianza Topal y Capahuari, y plan de monitoreo arqueológico para los Sectores Carmen y Jíbaro N.O. Lote 1-AB. Informe de la ficha técnica, memoria descriptiva y planos de sitios delimitados. 14 pp. Informe presentado al Instituto Nacional de Cultura. Lima, Perú."
Carmen 3,-2.48455181189808,-76.1604652819889,Loreto,Trompeteros,"PLUS PETROL NORTE SA & WALSH PERÚ SA. 2007. Mapa de sitios arqueológicos del proyecto EIA Proyecto 20 Pozos de Desarrollo y Construcción de Facilidades de Producción Lote 1AB. Datum WGS 84, Zona 18 S, Escala 1/600 000"
Carmen 4,-2.47597352920505,-76.1744692362909,Loreto,Trompeteros,"PLUS PETROL NORTE SA & WALSH PERÚ SA. 2007. Mapa de sitios arqueológicos del proyecto EIA Proyecto 20 Pozos de Desarrollo y Construcción de Facilidades de Producción Lote 1AB. Datum WGS 84, Zona 18 S, Escala 1/600 000"
Carmen 5,-2.46283453456357,-76.2203940957655,Loreto,Trompeteros,"PLUS PETROL NORTE SA & WALSH PERÚ SA. 2007. Mapa de sitios arqueológicos del proyecto EIA Proyecto 20 Pozos de Desarrollo y Construcción de Facilidades de Producción Lote 1AB. Datum WGS 84, Zona 18 S, Escala 1/600 000"
Carmen 6,-2.44743799102351,-76.241944896518,Loreto,Trompeteros,"PLUS PETROL NORTE SA & WALSH PERÚ SA. 2007. Mapa de sitios arqueológicos del proyecto EIA Proyecto 20 Pozos de Desarrollo y Construcción de Facilidades de Producción Lote 1AB. Datum WGS 84, Zona 18 S, Escala 1/600 000"
Shiviyacu,-2.52287652537367,-76.1606159178446,Loreto,Trompeteros,"PLUS PETROL NORTE SA & WALSH PERÚ SA. 2007. Mapa de sitios arqueológicos del proyecto EIA Proyecto 20 Pozos de Desarrollo y Construcción de Facilidades de Producción Lote 1AB. Datum WGS 84, Zona 18 S, Escala 1/600 000"
Quebrada Lupunayo,-3.7258305727207417,-75.30746958802551,Loreto,Trompeteros,"MAC KAY FULLE, Martín; y, Rafaél SANTA CRUZ. 2009. Cuninico y Maipuco, dos sitios arqueológicos en el río Marañón. Pp. 57-73. Arqueología y Sociedad, N° 20. Lima, Perú."
Boca de Copal,-3.71324542020048,-75.3351477816965,Loreto,Trompeteros,"MAC KAY FULLE, Martín; y, Rafaél SANTA CRUZ. 2009. Cuninico y Maipuco, dos sitios arqueológicos en el río Marañón. Pp. 57-73. Arqueología y Sociedad, N° 20. Lima, Perú."
Campamento Base 1,-3.72371735465354,-75.4281148190271,Loreto,Trompeteros,"WALSH PERÚ. 2008. Ficha de Registro de Sitio Arqueológico para los EIAS para el Programa de Prospección Sísmica 2D y Construcción de los Campamentos Bases Logísticos para las Operaciones del Lote 127, para CEPSA. Anexo 3-1 al 3-22 / 22 pp. Lima, Perú"
Boca de Copal 1,-3.75504471378778,-75.371799153372,Loreto,Trompeteros,"WALSH PERÚ. 2008. Ficha de Registro de Sitio Arqueológico para los EIAS para el Programa de Prospección Sísmica 2D y Construcción de los Campamentos Bases Logísticos para las Operaciones del Lote 127, para CEPSA. Anexo 3-1 al 3-22 / 22 pp. Lima, Perú"
Boca de Copal 2,-3.72545587860611,-75.424900730611,Loreto,Trompeteros,"WALSH PERÚ. 2008. Ficha de Registro de Sitio Arqueológico para los EIAS para el Programa de Prospección Sísmica 2D y Construcción de los Campamentos Bases Logísticos para las Operaciones del Lote 127, para CEPSA. Anexo 3-1 al 3-22 / 22 pp. Lima, Perú"
Santa Isabel de Copal,-3.69230841256428,-75.5843808204831,Loreto,Trompeteros,"WALSH PERÚ. 2008. Ficha de Registro de Sitio Arqueológico para los EIAS para el Programa de Prospección Sísmica 2D y Construcción de los Campamentos Bases Logísticos para las Operaciones del Lote 127, para CEPSA. Anexo 3-1 al 3-22 / 22 pp. Lima, Perú"
Quebrada Shimbillo,-3.69444297332347,-75.5849945475929,Loreto,Trompeteros,"WALSH PERÚ. 2008. Ficha de Registro de Sitio Arqueológico para los EIAS para el Programa de Prospección Sísmica 2D y Construcción de los Campamentos Bases Logísticos para las Operaciones del Lote 127, para CEPSA. Anexo 3-1 al 3-22 / 22 pp. Lima, Perú"
Santa Rosa,-3.16851761819132,-75.6553598984659,Loreto,Trompeteros,"MALLCO HUARCAYA, Rafael. 2016. Identificación y registro de sitios y zonas culturales intangibles de interés cultural en los ríos Pastaza, Tigre, Corrientes y Marañón, en el marco del Proyecto de ampliación del servicio de Catastro, Titulación y Registro de Tierras en las comunidades nativas de las cuencas de los ríos Pastaza, Tigre, Corrientes y Marañón, de las Provincias de Datem del Marañón y Loreto, región Loreto, con Código SNIP 316426. 208 pp. Informe Final presentado al Proyecto Titulación 4 Cuencas (Código SNIP 316426), Dirección Regional Agraria de Loreto, Gerencia de Desarrollo Económico – Gobierno Regional de Loreto. Iquitos, Perú."
Copal 1,-3.70878756547058,-75.3292386049394,Loreto,Trompeteros,"MALLCO HUARCAYA, Rafael. 2016. Identificación y registro de sitios y zonas culturales intangibles de interés cultural en los ríos Pastaza, Tigre, Corrientes y Marañón, en el marco del Proyecto de ampliación del servicio de Catastro, Titulación y Registro de Tierras en las comunidades nativas de las cuencas de los ríos Pastaza, Tigre, Corrientes y Marañón, de las Provincias de Datem del Marañón y Loreto, región Loreto, con Código SNIP 316426. 208 pp. Informe Final presentado al Proyecto Titulación 4 Cuencas (Código SNIP 316426), Dirección Regional Agraria de Loreto, Gerencia de Desarrollo Económico – Gobierno Regional de Loreto. Iquitos, Perú."
Copal 2,-3.71020894216796,-75.3264654834654,Loreto,Trompeteros,"MALLCO HUARCAYA, Rafael. 2016. Identificación y registro de sitios y zonas culturales intangibles de interés cultural en los ríos Pastaza, Tigre, Corrientes y Marañón, en el marco del Proyecto de ampliación del servicio de Catastro, Titulación y Registro de Tierras en las comunidades nativas de las cuencas de los ríos Pastaza, Tigre, Corrientes y Marañón, de las Provincias de Datem del Marañón y Loreto, región Loreto, con Código SNIP 316426. 208 pp. Informe Final presentado al Proyecto Titulación 4 Cuencas (Código SNIP 316426), Dirección Regional Agraria de Loreto, Gerencia de Desarrollo Económico – Gobierno Regional de Loreto. Iquitos, Perú."
Nuevo Triunfo 1,-3.80054356799056,-75.0936127081786,Loreto,Trompeteros,"MALLCO HUARCAYA, Rafael. 2016. Identificación y registro de sitios y zonas culturales intangibles de interés cultural en los ríos Pastaza, Tigre, Corrientes y Marañón, en el marco del Proyecto de ampliación del servicio de Catastro, Titulación y Registro de Tierras en las comunidades nativas de las cuencas de los ríos Pastaza, Tigre, Corrientes y Marañón, de las Provincias de Datem del Marañón y Loreto, región Loreto, con Código SNIP 316426. 208 pp. Informe Final presentado al Proyecto Titulación 4 Cuencas (Código SNIP 316426), Dirección Regional Agraria de Loreto, Gerencia de Desarrollo Económico – Gobierno Regional de Loreto. Iquitos, Perú."
Nuevo Triunfo 2,-3.81012295473912,-75.1047097600796,Loreto,Trompeteros,"MALLCO HUARCAYA, Rafael. 2016. Identificación y registro de sitios y zonas culturales intangibles de interés cultural en los ríos Pastaza, Tigre, Corrientes y Marañón, en el marco del Proyecto de ampliación del servicio de Catastro, Titulación y Registro de Tierras en las comunidades nativas de las cuencas de los ríos Pastaza, Tigre, Corrientes y Marañón, de las Provincias de Datem del Marañón y Loreto, región Loreto, con Código SNIP 316426. 208 pp. Informe Final presentado al Proyecto Titulación 4 Cuencas (Código SNIP 316426), Dirección Regional Agraria de Loreto, Gerencia de Desarrollo Económico – Gobierno Regional de Loreto. Iquitos, Perú."
Nuevo Triunfo 3,-3.82032570842296,-75.1209859398967,Loreto,Trompeteros,"MALLCO HUARCAYA, Rafael. 2016. Identificación y registro de sitios y zonas culturales intangibles de interés cultural en los ríos Pastaza, Tigre, Corrientes y Marañón, en el marco del Proyecto de ampliación del servicio de Catastro, Titulación y Registro de Tierras en las comunidades nativas de las cuencas de los ríos Pastaza, Tigre, Corrientes y Marañón, de las Provincias de Datem del Marañón y Loreto, región Loreto, con Código SNIP 316426. 208 pp. Informe Final presentado al Proyecto Titulación 4 Cuencas (Código SNIP 316426), Dirección Regional Agraria de Loreto, Gerencia de Desarrollo Económico – Gobierno Regional de Loreto. Iquitos, Perú."
Santa Elena,-3.81102993869016,-75.0838237529774,Loreto,Trompeteros,"MALLCO HUARCAYA, Rafael. 2016. Identificación y registro de sitios y zonas culturales intangibles de interés cultural en los ríos Pastaza, Tigre, Corrientes y Marañón, en el marco del Proyecto de ampliación del servicio de Catastro, Titulación y Registro de Tierras en las comunidades nativas de las cuencas de los ríos Pastaza, Tigre, Corrientes y Marañón, de las Provincias de Datem del Marañón y Loreto, región Loreto, con Código SNIP 316426. 208 pp. Informe Final presentado al Proyecto Titulación 4 Cuencas (Código SNIP 316426), Dirección Regional Agraria de Loreto, Gerencia de Desarrollo Económico – Gobierno Regional de Loreto. Iquitos, Perú."
Cuchara 1,-3.7931569759135,-74.8726773995613,Loreto,Trompeteros,"MALLCO HUARCAYA, Rafael. 2016. Identificación y registro de sitios y zonas culturales intangibles de interés cultural en los ríos Pastaza, Tigre, Corrientes y Marañón, en el marco del Proyecto de ampliación del servicio de Catastro, Titulación y Registro de Tierras en las comunidades nativas de las cuencas de los ríos Pastaza, Tigre, Corrientes y Marañón, de las Provincias de Datem del Marañón y Loreto, región Loreto, con Código SNIP 316426. 208 pp. Informe Final presentado al Proyecto Titulación 4 Cuencas (Código SNIP 316426), Dirección Regional Agraria de Loreto, Gerencia de Desarrollo Económico – Gobierno Regional de Loreto. Iquitos, Perú."
Cuchara 2,-3.79319726318308,-74.842704367364,Loreto,Trompeteros,"MALLCO HUARCAYA, Rafael. 2016. Identificación y registro de sitios y zonas culturales intangibles de interés cultural en los ríos Pastaza, Tigre, Corrientes y Marañón, en el marco del Proyecto de ampliación del servicio de Catastro, Titulación y Registro de Tierras en las comunidades nativas de las cuencas de los ríos Pastaza, Tigre, Corrientes y Marañón, de las Provincias de Datem del Marañón y Loreto, región Loreto, con Código SNIP 316426. 208 pp. Informe Final presentado al Proyecto Titulación 4 Cuencas (Código SNIP 316426), Dirección Regional Agraria de Loreto, Gerencia de Desarrollo Económico – Gobierno Regional de Loreto. Iquitos, Perú."
Belén,-3.1284734299168613,-75.70416581467798,Loreto,Trompeteros,"SOTO VELARDE, Lilyan. 2001. Proyecto de reconocimiento arqueológico impacto ambiental Nueva Esperanza Jibarito (región Loreto). Informe presentado al Instituto Nacional de Cultura."
Nuevo San Juan,-4.559463499147717,-74.8153803535767,Loreto,Urarinas,"MAC KAY FULLE, Martín; y, Rafaél SANTA CRUZ. 2009. Cuninico y Maipuco, dos sitios arqueológicos en el río Marañón. Pp. 57-73. Arqueología y Sociedad, N° 20. Lima, Perú."
San Gabriel,-4.614968390395617,-74.79507168798804,Loreto,Urarinas,"MAC KAY FULLE, Martín; y, Rafaél SANTA CRUZ. 2009. Cuninico y Maipuco, dos sitios arqueológicos en el río Marañón. Pp. 57-73. Arqueología y Sociedad, N° 20. Lima, Perú."
Victoria,-4.6389725079861135,-74.80683070810841,Loreto,Urarinas,"MAC KAY FULLE, Martín; y, Rafaél SANTA CRUZ. 2009. Cuninico y Maipuco, dos sitios arqueológicos en el río Marañón. Pp. 57-73. Arqueología y Sociedad, N° 20. Lima, Perú."
Berlín,-4.65796504905148,-74.7879725114214,Loreto,Urarinas,"MAC KAY FULLE, Martín; y, Rafaél SANTA CRUZ. 2009. Cuninico y Maipuco, dos sitios arqueológicos en el río Marañón. Pp. 57-73. Arqueología y Sociedad, N° 20. Lima, Perú."
18 de Julio,-4.67735174163593,-74.8585571238359,Loreto,Urarinas,"MAC KAY FULLE, Martín; y, Rafaél SANTA CRUZ. 2009. Cuninico y Maipuco, dos sitios arqueológicos en el río Marañón. Pp. 57-73. Arqueología y Sociedad, N° 20. Lima, Perú."
Huallpa Isla,-4.672887515710986,-74.83892912672542,Loreto,Urarinas,"MAC KAY FULLE, Martín; y, Rafaél SANTA CRUZ. 2009. Cuninico y Maipuco, dos sitios arqueológicos en el río Marañón. Pp. 57-73. Arqueología y Sociedad, N° 20. Lima, Perú. // MALLCO HUARCAYA, Rafael. 2016. Identificación y registro de sitios y zonas culturales intangibles de interés cultural en los ríos Pastaza, Tigre, Corrientes y Marañón, en el marco del Proyecto de ampliación del servicio de Catastro, Titulación y Registro de Tierras en las comunidades nativas de las cuencas de los ríos Pastaza, Tigre, Corrientes y Marañón, de las Provincias de Datem del Marañón y Loreto, región Loreto, con Código SNIP 316426. 208 pp. Informe Final presentado al Proyecto Titulación 4 Cuencas (Código SNIP 316426), Dirección Regional Agraria de Loreto, Gerencia de Desarrollo Económico – Gobierno Regional de Loreto. Iquitos, Perú."
Buenos Aires,-4.69676003796637,-74.875153150447,Loreto,Urarinas,"MAC KAY FULLE, Martín; y, Rafaél SANTA CRUZ. 2009. Cuninico y Maipuco, dos sitios arqueológicos en el río Marañón. Pp. 57-73. Arqueología y Sociedad, N° 20. Lima, Perú."
Nueva Elvira,-4.70520124375048,-74.8788395650055,Loreto,Urarinas,"MAC KAY FULLE, Martín; y, Rafaél SANTA CRUZ. 2009. Cuninico y Maipuco, dos sitios arqueológicos en el río Marañón. Pp. 57-73. Arqueología y Sociedad, N° 20. Lima, Perú."
San José de Saramuro,-4.7365575467282675,-74.96145088503046,Loreto,Urarinas,"MAC KAY FULLE, Martín; y, Rafaél SANTA CRUZ. 2009. Cuninico y Maipuco, dos sitios arqueológicos en el río Marañón. Pp. 57-73. Arqueología y Sociedad, N° 20. Lima, Perú."
San Pedro de Maipuco,-4.76213997179389,-75.0605716768734,Loreto,Urarinas,"MAC KAY FULLE, Martín; y, Rafaél SANTA CRUZ. 2009. Cuninico y Maipuco, dos sitios arqueológicos en el río Marañón. Pp. 57-73. Arqueología y Sociedad, N° 20. Lima, Perú."
Nueva Esperanza,-4.81357529404295,-75.0960092389833,Loreto,Urarinas,"MAC KAY FULLE, Martín; y, Rafaél SANTA CRUZ. 2009. Cuninico y Maipuco, dos sitios arqueológicos en el río Marañón. Pp. 57-73. Arqueología y Sociedad, N° 20. Lima, Perú."
Urarinas,-4.79148920232458,-75.2746437677163,Loreto,Urarinas,"MAC KAY FULLE, Martín; y, Rafaél SANTA CRUZ. 2009. Cuninico y Maipuco, dos sitios arqueológicos en el río Marañón. Pp. 57-73. Arqueología y Sociedad, N° 20. Lima, Perú."
Nueva Santa Rosa o Santa Rosa,-4.78814236655656,-75.31571892295158,Loreto,Urarinas,"MAC KAY FULLE, Martín; y, Rafaél SANTA CRUZ. 2009. Cuninico y Maipuco, dos sitios arqueológicos en el río Marañón. Pp. 57-73. Arqueología y Sociedad, N° 20. Lima, Perú. // MALLCO HUARCAYA, Rafael. 2016. Identificación y registro de sitios y zonas culturales intangibles de interés cultural en los ríos Pastaza, Tigre, Corrientes y Marañón, en el marco del Proyecto de ampliación del servicio de Catastro, Titulación y Registro de Tierras en las comunidades nativas de las cuencas de los ríos Pastaza, Tigre, Corrientes y Marañón, de las Provincias de Datem del Marañón y Loreto, región Loreto, con Código SNIP 316426. 208 pp. Informe Final presentado al Proyecto Titulación 4 Cuencas (Código SNIP 316426), Dirección Regional Agraria de Loreto, Gerencia de Desarrollo Económico – Gobierno Regional de Loreto. Iquitos, Perú."
Santa Teresa,-4.80104683124876,-75.3446005798147,Loreto,Urarinas,"MAC KAY FULLE, Martín; y, Rafaél SANTA CRUZ. 2009. Cuninico y Maipuco, dos sitios arqueológicos en el río Marañón. Pp. 57-73. Arqueología y Sociedad, N° 20. Lima, Perú."
Cuninico,-4.803424213665119,-75.21740146721766,Loreto,Urarinas,"MAC KAY FULLE, Martín; y, Rafaél SANTA CRUZ. 2009. Cuninico y Maipuco, dos sitios arqueológicos en el río Marañón. Pp. 57-73. Arqueología y Sociedad, N° 20. Lima, Perú. //MALLCO HUARCAYA, Rafael. 2016. Identificación y registro de sitios y zonas culturales intangibles de interés cultural en los ríos Pastaza, Tigre, Corrientes y Marañón, en el marco del Proyecto de ampliación del servicio de Catastro, Titulación y Registro de Tierras en las comunidades nativas de las cuencas de los ríos Pastaza, Tigre, Corrientes y Marañón, de las Provincias de Datem del Marañón y Loreto, región Loreto, con Código SNIP 316426. 208 pp. Informe Final presentado al Proyecto Titulación 4 Cuencas (Código SNIP 316426), Dirección Regional Agraria de Loreto, Gerencia de Desarrollo Económico – Gobierno Regional de Loreto. Iquitos, Perú."
Maipuco,-4.830814272195026,-75.12089385203731,Loreto,Urarinas,"MAC KAY FULLE, Martín; y, Rafaél SANTA CRUZ. 2009. Cuninico y Maipuco, dos sitios arqueológicos en el río Marañón. Pp. 57-73. Arqueología y Sociedad, N° 20. Lima, Perú."
San Pedro,-4.76635685047992,-75.0460715508233,Loreto,Urarinas,"MALLCO HUARCAYA, Rafael. 2016. Identificación y registro de sitios y zonas culturales intangibles de interés cultural en los ríos Pastaza, Tigre, Corrientes y Marañón, en el marco del Proyecto de ampliación del servicio de Catastro, Titulación y Registro de Tierras en las comunidades nativas de las cuencas de los ríos Pastaza, Tigre, Corrientes y Marañón, de las Provincias de Datem del Marañón y Loreto, región Loreto, con Código SNIP 316426. 208 pp. Informe Final presentado al Proyecto Titulación 4 Cuencas (Código SNIP 316426), Dirección Regional Agraria de Loreto, Gerencia de Desarrollo Económico – Gobierno Regional de Loreto. Iquitos, Perú."
El Guacamayal,-4.63526599873271,-74.8167763532133,Loreto,Urarinas,"MALLCO HUARCAYA, Rafael. 2016. Identificación y registro de sitios y zonas culturales intangibles de interés cultural en los ríos Pastaza, Tigre, Corrientes y Marañón, en el marco del Proyecto de ampliación del servicio de Catastro, Titulación y Registro de Tierras en las comunidades nativas de las cuencas de los ríos Pastaza, Tigre, Corrientes y Marañón, de las Provincias de Datem del Marañón y Loreto, región Loreto, con Código SNIP 316426. 208 pp. Informe Final presentado al Proyecto Titulación 4 Cuencas (Código SNIP 316426), Dirección Regional Agraria de Loreto, Gerencia de Desarrollo Económico – Gobierno Regional de Loreto. Iquitos, Perú."
Vacapongo,-4.62063295286055,-74.7998754828934,Loreto,Urarinas,"MALLCO HUARCAYA, Rafael. 2016. Identificación y registro de sitios y zonas culturales intangibles de interés cultural en los ríos Pastaza, Tigre, Corrientes y Marañón, en el marco del Proyecto de ampliación del servicio de Catastro, Titulación y Registro de Tierras en las comunidades nativas de las cuencas de los ríos Pastaza, Tigre, Corrientes y Marañón, de las Provincias de Datem del Marañón y Loreto, región Loreto, con Código SNIP 316426. 208 pp. Informe Final presentado al Proyecto Titulación 4 Cuencas (Código SNIP 316426), Dirección Regional Agraria de Loreto, Gerencia de Desarrollo Económico – Gobierno Regional de Loreto. Iquitos, Perú."
Nuevo Lima,-4.58044272747551,-74.7830822035233,Loreto,Urarinas,"MAC KAY FULLE, Martín; y, Rafaél SANTA CRUZ. 2009. Cuninico y Maipuco, dos sitios arqueológicos en el río Marañón. Pp. 57-73. Arqueología y Sociedad, N° 20. Lima, Perú."
Santa Martha,-4.487418450918583,-75.05888973259866,Loreto,Urarinas,"MAC KAY FULLE, Martín; y, Rafaél SANTA CRUZ. 2009. Cuninico y Maipuco, dos sitios arqueológicos en el río Marañón. Pp. 57-73. Arqueología y Sociedad, N° 20. Lima, Perú."
Santa Beatriz,-4.3572914709747,-75.1200390441301,Loreto,Urarinas,"MYERS, Thomas; y, Bartholomew DEAN. 1999. Cerámica prehispánica del río Chambira, Loreto. Pp. 255-288. Amazonía Peruana, Tomo XIII, N° 26. Lima, Perú."
Chacra Mariano,-4.35777981564598,-75.1211656977459,Loreto,Urarinas,"MYERS, Thomas; y, Bartholomew DEAN. 1999. Cerámica prehispánica del río Chambira, Loreto. Pp. 255-288. Amazonía Peruana, Tomo XIII, N° 26. Lima, Perú."
Puerto Juanico,-4.35677579936069,-75.1200750127531,Loreto,Urarinas,"MYERS, Thomas; y, Bartholomew DEAN. 1999. Cerámica prehispánica del río Chambira, Loreto. Pp. 255-288. Amazonía Peruana, Tomo XIII, N° 26. Lima, Perú."
Nueva Esperanza 1,-4.2963646361982,-75.2255583444469,Loreto,Urarinas,"MORALES CHOCANO, Daniel. 1992. Chambira: Alfareros tempranos de la Amazonía. Pp. 149-172. Estudios de Arqueología Peruana. Lima, Perú. // MORALES CHOCANO, Daniel. 1998. Chambira: Una cultura de sabana árida en la Amazonía peruana. pp. 61-75. Investigaciones Sociales, Año 2, N° 2. Lima, Perú."
Nueva Esperanza 2,-4.28996636113758,-75.2329911650778,Loreto,Urarinas,"MORALES CHOCANO, Daniel. 1992. Chambira: Alfareros tempranos de la Amazonía. Pp. 149-172. Estudios de Arqueología Peruana. Lima, Perú. // MORALES CHOCANO, Daniel. 1998. Chambira: Una cultura de sabana árida en la Amazonía peruana. pp. 61-75. Investigaciones Sociales, Año 2, N° 2. Lima, Perú."
Nueva Esperanza 3,-4.28402921786276,-75.2410097641306,Loreto,Urarinas,"MORALES CHOCANO, Daniel. 1992. Chambira: Alfareros tempranos de la Amazonía. Pp. 149-172. Estudios de Arqueología Peruana. Lima, Perú. // MORALES CHOCANO, Daniel. 1998. Chambira: Una cultura de sabana árida en la Amazonía peruana. pp. 61-75. Investigaciones Sociales, Año 2, N° 2. Lima, Perú."
Nueva Esperanza 4,-4.27957211035087,-75.2596984712351,Loreto,Urarinas,"MORALES CHOCANO, Daniel. 1992. Chambira: Alfareros tempranos de la Amazonía. Pp. 149-172. Estudios de Arqueología Peruana. Lima, Perú. // MORALES CHOCANO, Daniel. 1998. Chambira: Una cultura de sabana árida en la Amazonía peruana. pp. 61-75. Investigaciones Sociales, Año 2, N° 2. Lima, Perú."
Nueva Esperanza 5,-4.27953990933776,-75.2741981387519,Loreto,Urarinas,"MORALES CHOCANO, Daniel. 1992. Chambira: Alfareros tempranos de la Amazonía. Pp. 149-172. Estudios de Arqueología Peruana. Lima, Perú. // MORALES CHOCANO, Daniel. 1998. Chambira: Una cultura de sabana árida en la Amazonía peruana. pp. 61-75. Investigaciones Sociales, Año 2, N° 2. Lima, Perú."
Nueva Esperanza 6,-4.27834160738096,-75.2855072517584,Loreto,Urarinas,"MORALES CHOCANO, Daniel. 1992. Chambira: Alfareros tempranos de la Amazonía. Pp. 149-172. Estudios de Arqueología Peruana. Lima, Perú. // MORALES CHOCANO, Daniel. 1998. Chambira: Una cultura de sabana árida en la Amazonía peruana. pp. 61-75. Investigaciones Sociales, Año 2, N° 2. Lima, Perú."
Nueva Esperanza 7,-4.26461315509785,-75.2466178344152,Loreto,Urarinas,"MORALES CHOCANO, Daniel. 1992. Chambira: Alfareros tempranos de la Amazonía. Pp. 149-172. Estudios de Arqueología Peruana. Lima, Perú. // MORALES CHOCANO, Daniel. 1998. Chambira: Una cultura de sabana árida en la Amazonía peruana. pp. 61-75. Investigaciones Sociales, Año 2, N° 2. Lima, Perú."
San Jorge 1,-3.90791715238208,-75.6629050123346,Loreto,Urarinas,"MORALES CHOCANO, Daniel. 1992. Chambira: Alfareros tempranos de la Amazonía. Pp. 149-172. Estudios de Arqueología Peruana. Lima, Perú. // MORALES CHOCANO, Daniel. 1998. Chambira: Una cultura de sabana árida en la Amazonía peruana. pp. 61-75. Investigaciones Sociales, Año 2, N° 2. Lima, Perú."
San Jorge 2,-3.9307237984011,-75.6616979926085,Loreto,Urarinas,"MORALES CHOCANO, Daniel. 1992. Chambira: Alfareros tempranos de la Amazonía. Pp. 149-172. Estudios de Arqueología Peruana. Lima, Perú. // MORALES CHOCANO, Daniel. 1998. Chambira: Una cultura de sabana árida en la Amazonía peruana. pp. 61-75. Investigaciones Sociales, Año 2, N° 2. Lima, Perú."
San Jorge 3,-3.96126294999112,-75.6630642816672,Loreto,Urarinas,"MORALES CHOCANO, Daniel. 1992. Chambira: Alfareros tempranos de la Amazonía. Pp. 149-172. Estudios de Arqueología Peruana. Lima, Perú. // MORALES CHOCANO, Daniel. 1998. Chambira: Una cultura de sabana árida en la Amazonía peruana. pp. 61-75. Investigaciones Sociales, Año 2, N° 2. Lima, Perú."
San Jorge 4,-3.97729908541357,-75.7605033205544,Loreto,Urarinas,"MORALES CHOCANO, Daniel. 1992. Chambira: Alfareros tempranos de la Amazonía. Pp. 149-172. Estudios de Arqueología Peruana. Lima, Perú. // MORALES CHOCANO, Daniel. 1998. Chambira: Una cultura de sabana árida en la Amazonía peruana. pp. 61-75. Investigaciones Sociales, Año 2, N° 2. Lima, Perú."
Nueva Angora 1,-4.35279968751349,-75.3414031531589,Loreto,Urarinas,"MORALES CHOCANO, Daniel. 1992. Chambira: Alfareros tempranos de la Amazonía. Pp. 149-172. Estudios de Arqueología Peruana. Lima, Perú. // MORALES CHOCANO, Daniel. 1998. Chambira: Una cultura de sabana árida en la Amazonía peruana. pp. 61-75. Investigaciones Sociales, Año 2, N° 2. Lima, Perú."
Nueva Angora 2,-4.36230163896723,-75.3347652064876,Loreto,Urarinas,"MORALES CHOCANO, Daniel. 1992. Chambira: Alfareros tempranos de la Amazonía. Pp. 149-172. Estudios de Arqueología Peruana. Lima, Perú. // MORALES CHOCANO, Daniel. 1998. Chambira: Una cultura de sabana árida en la Amazonía peruana. pp. 61-75. Investigaciones Sociales, Año 2, N° 2. Lima, Perú."
Nueva Angora 3,-4.37606728713729,-75.3217299335991,Loreto,Urarinas,"MORALES CHOCANO, Daniel. 1992. Chambira: Alfareros tempranos de la Amazonía. Pp. 149-172. Estudios de Arqueología Peruana. Lima, Perú. // MORALES CHOCANO, Daniel. 1998. Chambira: Una cultura de sabana árida en la Amazonía peruana. pp. 61-75. Investigaciones Sociales, Año 2, N° 2. Lima, Perú."
Nueva Angora 4,-4.02087924797279,-75.314350593562,Loreto,Urarinas,"MORALES CHOCANO, Daniel. 1992. Chambira: Alfareros tempranos de la Amazonía. Pp. 149-172. Estudios de Arqueología Peruana. Lima, Perú. // MORALES CHOCANO, Daniel. 1998. Chambira: Una cultura de sabana árida en la Amazonía peruana. pp. 61-75. Investigaciones Sociales, Año 2, N° 2. Lima, Perú."
Pucayacu 1,-4.23935846431154,-75.2344807858474,Loreto,Urarinas,"MORALES CHOCANO, Daniel. 1992. Chambira: Alfareros tempranos de la Amazonía. Pp. 149-172. Estudios de Arqueología Peruana. Lima, Perú. // MORALES CHOCANO, Daniel. 1998. Chambira: Una cultura de sabana árida en la Amazonía peruana. pp. 61-75. Investigaciones Sociales, Año 2, N° 2. Lima, Perú."
Pucayacu 2,-4.23416239019821,-75.244941107951,Loreto,Urarinas,"MORALES CHOCANO, Daniel. 1992. Chambira: Alfareros tempranos de la Amazonía. Pp. 149-172. Estudios de Arqueología Peruana. Lima, Perú. // MORALES CHOCANO, Daniel. 1998. Chambira: Una cultura de sabana árida en la Amazonía peruana. pp. 61-75. Investigaciones Sociales, Año 2, N° 2. Lima, Perú."
Pucayacu 3,-4.23169741166119,-75.2580604415399,Loreto,Urarinas,"MORALES CHOCANO, Daniel. 1992. Chambira: Alfareros tempranos de la Amazonía. Pp. 149-172. Estudios de Arqueología Peruana. Lima, Perú. // MORALES CHOCANO, Daniel. 1998. Chambira: Una cultura de sabana árida en la Amazonía peruana. pp. 61-75. Investigaciones Sociales, Año 2, N° 2. Lima, Perú."
Tres Fronteras,-4.46637313470153,-75.1430240154473,Loreto,Urarinas,"MAC KAY FULLE, Martín; y, Rafaél SANTA CRUZ. 2009. Cuninico y Maipuco, dos sitios arqueológicos en el río Marañón. Pp. 57-73. Arqueología y Sociedad, N° 20. Lima, Perú."
Santa Cruz de Tagual,-4.39119339644824,-75.3214389762373,Loreto,Urarinas,"MAC KAY FULLE, Martín; y, Rafaél SANTA CRUZ. 2009. Cuninico y Maipuco, dos sitios arqueológicos en el río Marañón. Pp. 57-73. Arqueología y Sociedad, N° 20. Lima, Perú."
Santa Rosa de Aerico,-4.27336207339972,-74.93470171485,Loreto,Urarinas,"MAC KAY FULLE, Martín; y, Rafaél SANTA CRUZ. 2009. Cuninico y Maipuco, dos sitios arqueológicos en el río Marañón. Pp. 57-73. Arqueología y Sociedad, N° 20. Lima, Perú."
Santa Cruz 1,-4.14882081555063,-75.4565240692402,Loreto,Urarinas,"WALSH PERÚ. 2008. Ficha de Registro de Sitio Arqueológico para los EIAS para el Programa de Prospección Sísmica 2D y Construcción de los Campamentos Bases Logísticos para las Operaciones del Lote 127, para CEPSA. Anexo 3-1 al 3-22 / 22 pp. Lima, Perú."
Santa Cruz 2,-4.144551359398,-75.455629642294,Loreto,Urarinas,"WALSH PERÚ. 2008. Ficha de Registro de Sitio Arqueológico para los EIAS para el Programa de Prospección Sísmica 2D y Construcción de los Campamentos Bases Logísticos para las Operaciones del Lote 127, para CEPSA. Anexo 3-1 al 3-22 / 22 pp. Lima, Perú."
Santa Cruz 3,-4.13874161819157,-75.4588338083894,Loreto,Urarinas,"WALSH PERÚ. 2008. Ficha de Registro de Sitio Arqueológico para los EIAS para el Programa de Prospección Sísmica 2D y Construcción de los Campamentos Bases Logísticos para las Operaciones del Lote 127, para CEPSA. Anexo 3-1 al 3-22 / 22 pp. Lima, Perú"
Santa Rosa del Chambira 1,-4.08280480910566,-75.5349198930052,Loreto,Urarinas,"WALSH PERÚ. 2008. Ficha de Registro de Sitio Arqueológico para los EIAS para el Programa de Prospección Sísmica 2D y Construcción de los Campamentos Bases Logísticos para las Operaciones del Lote 127, para CEPSA. Anexo 3-1 al 3-22 / 22 pp. Lima, Perú"
Santa Rosa del Chambira 2,-4.07763444105806,-75.5553578827872,Loreto,Urarinas,"WALSH PERÚ. 2008. Ficha de Registro de Sitio Arqueológico para los EIAS para el Programa de Prospección Sísmica 2D y Construcción de los Campamentos Bases Logísticos para las Operaciones del Lote 127, para CEPSA. Anexo 3-1 al 3-22 / 22 pp. Lima, Perú"
28 de Julio del Chambira,-4.23059578056962,-75.3652099150094,Loreto,Urarinas,"WALSH PERÚ. 2008. Ficha de Registro de Sitio Arqueológico para los EIAS para el Programa de Prospección Sísmica 2D y Construcción de los Campamentos Bases Logísticos para las Operaciones del Lote 127, para CEPSA. Anexo 3-1 al 3-22 / 22 pp. Lima, Perú"
Nueva Alianza,-4.45394746487094,-74.9782767736159,Loreto,Urarinas,"MAC KAY FULLE, Martín; y, Rafaél SANTA CRUZ. 2009. Cuninico y Maipuco, dos sitios arqueológicos en el río Marañón. Pp. 57-73. Arqueología y Sociedad, N° 20. Lima, Perú."
Urituyacu - Linea 4,-4.141754823413583,-76.01455018083585,Loreto,Urarinas,"RAVINES, Rogger. 1998. Cerámica antigua del río Urituyacu, Provincia y Departamento de Loreto. Pp. 49-70. Boletín de Lima N° 112. Lima, Perú."
Montículo,-4.141399964216462,-76.01363957871031,Loreto,Urarinas,"RAVINES, Rogger. 1998. Cerámica antigua del río Urituyacu, Provincia y Departamento de Loreto. Pp. 49-70. Boletín de Lima N° 112. Lima, Perú."
Cachuela Solimar,-4.19088612651767,-75.9792422755546,Loreto,Urarinas,"RAVINES, Rogger. 1998. Cerámica antigua del río Urituyacu, Provincia y Departamento de Loreto. Pp. 49-70. Boletín de Lima N° 112. Lima, Perú."
Zapallar,-4.1645216828854,-75.9982366780597,Loreto,Urarinas,"RAVINES, Rogger. 1998. Cerámica antigua del río Urituyacu, Provincia y Departamento de Loreto. Pp. 49-70. Boletín de Lima N° 112. Lima, Perú."
Helipuerto Bell 212,-4.22845588298788,-75.9322487299986,Loreto,Urarinas,"RAVINES, Rogger. 1998. Cerámica antigua del río Urituyacu, Provincia y Departamento de Loreto. Pp. 49-70. Boletín de Lima N° 112. Lima, Perú."
Helipuerto MI-17,-4.22823915716753,-75.9319421336326,Loreto,Urarinas,"RAVINES, Rogger. 1998. Cerámica antigua del río Urituyacu, Provincia y Departamento de Loreto. Pp. 49-70. Boletín de Lima N° 112. Lima, Perú."
Helipuerto de Recarga,-4.2276164623148,-75.9307340608786,Loreto,Urarinas,"RAVINES, Rogger. 1998. Cerámica antigua del río Urituyacu, Provincia y Departamento de Loreto. Pp. 49-70. Boletín de Lima N° 112. Lima, Perú."
San Juan de Abejaico,-4.22785856855611,-75.9325002939034,Loreto,Urarinas,"RAVINES, Rogger. 1998. Cerámica antigua del río Urituyacu, Provincia y Departamento de Loreto. Pp. 49-70. Boletín de Lima N° 112. Lima, Perú."
Achual Tipishca (Hua 80-1),-5.44963605660201,-75.8168781959847,Alto Amazonas,Lagunas,"MYERS, Thomas. 1984/85. Archaeological evidence from Achual Tipishca, Lower Huallaga River, Perú. Pp. 211-224. Ñawpa Pacha. Institute of Andean Studies. Nº 22-23. Berkeley, California. USA."
Yarinal (Hua 80-2),-5.44841094629238,-75.8329704973681,Alto Amazonas,Lagunas,"MYERS, Thomas. 1984/85. Archaeological evidence from Achual Tipishca, Lower Huallaga River, Perú. Pp. 211-224. Ñawpa Pacha. Institute of Andean Studies. Nº 22-23. Berkeley, California. USA."
Hua 80-3,-5.45817299709428,-75.81841521872,Alto Amazonas,Lagunas,"MYERS, Thomas. 1984/85. Archaeological evidence from Achual Tipishca, Lower Huallaga River, Perú. Pp. 211-224. Ñawpa Pacha. Instituto de Estudios Andinos. Nº 22-23. Berkeley, California. USA."
Cocha Paranapura,-5.89443328802517,-76.1878044964763,Alto Amazonas,Yurimaguas,"RIVAS PANDURO, Santiago. 2016. Informe N° 072-2016/AA/MC-DDC-LOR/SRP. 8 pp. Informe donde se reporta el hallazgo de dos sitios arqueológicos en la cuenca del río Paranapura (Cocha Paranapura, Cocha Paranapura 2), en el marco de la inspección de campo al proyecto “Plan de Monitoreo Arqueológico Mejoramiento y Rehabilitación de la Carretera Yurimaguas – Munichis (Hasta el puente Yanayacu. L=10.20 km), Provincia de Alto Amazonas, Departamento de Loreto”, ubicado en el Distrito de Yurimaguas, Provincia Alto Amazonas, Departamento de Loreto, a cargo de la Lic. Zoraida Villafuerte Cáceres."
Cocha Paranapura 2,-5.89705772283192,-76.1526379853349,Alto Amazonas,Yurimaguas,"RIVAS PANDURO, Santiago. 2016. Informe N° 072-2016/AA/MC-DDC-LOR/SRP. 8 pp. Informe donde se reporta el hallazgo de dos sitios arqueológicos en la cuenca del río Paranapura (Cocha Paranapura, Cocha Paranapura 2), en el marco de la inspección de campo al proyecto “Plan de Monitoreo Arqueológico Mejoramiento y Rehabilitación de la Carretera Yurimaguas – Munichis (Hasta el puente Yanayacu. L=10.20 km), Provincia de Alto Amazonas, Departamento de Loreto”, ubicado en el Distrito de Yurimaguas, Provincia Alto Amazonas, Departamento de Loreto, a cargo de la Lic. Zoraida Villafuerte Cáceres."
Munichis,-5.893475635041973,-76.23312600165816,Alto Amazonas,Yurimaguas,"JORDÁN BEJARANO, Carlos Francisco. 2006. Informe del proyecto de evaluación arqueológica en el área del Convenio N° 009-2004-FIP entre el Fondo Ítalo Peruano y la Municipalidad de Balsapuerto, Departamento de Loreto, “Proyecto Mejoramiento de Ganado de doble propósito en el Distrito de Balsapuerto”. 44 pp. Presentado al Instituto Nacional de Cultura. Lima, Perú."
"AA Balsapuerto 1 (Sectores A,B,C,D,E,F,G) / Sector D o Santa Rosa",-5.829042355515232,-76.55856985159777,Alto Amazonas,Balsapuerto,"RIVAS PANDURO, Santiago. 2000. Prospección arqueológica en la cuenca del río Cachiyacu, Balsapuerto, Loreto. 107 pp. Informe presentado a la Dra. Ruth Shady Solís, Asesora del proyecto de investigación, del curso Prácticas Pre Profesionales II, Universidad Nacional Mayor de San Marcos. Iquitos, Perú. // RIVAS PANDURO, Santiago. 2001. Prospección arqueológica en la cuenca del río Cachiyacu, Balsapuerto, Loreto. 80 pp. Informe presentado al Instituto Nacional de Cultura. Iquitos, Perú. // RIVAS PANDURO, Santiago. 2003. Los asentamientos prehispánicos de la cuenca del río Cachiyacu, Amazonía peruana. 142 pp. Instituto Cultural Runa. Lima, Perú. // JORDÁN BEJARANO, Carlos Francisco. 2006. Informe del proyecto de evaluación arqueológica en el área del Convenio N° 009-2004-FIP entre el Fondo Ítalo Peruano y la Municipalidad de Balsapuerto, Departamento de Loreto, “Proyecto Mejoramiento de Ganado de doble propósito en el Distrito de Balsapuerto”. 44 pp. Presentado al Instituto Nacional de Cultura. Lima, Perú."
"AA Balsapuerto 2, o San Jorge",-5.841302807383907,-76.56253178461262,Alto Amazonas,Balsapuerto,"RIVAS PANDURO, Santiago. 2000. Prospección arqueológica en la cuenca del río Cachiyacu, Balsapuerto, Loreto. 107 pp. Informe presentado a la Dra. Ruth Shady Solís, Asesora del proyecto de investigación, del curso Prácticas Pre Profesionales II, Universidad Nacional Mayor de San Marcos. Iquitos, Perú. // RIVAS PANDURO, Santiago. 2001. Prospección arqueológica en la cuenca del río Cachiyacu, Balsapuerto, Loreto. 80 pp. Informe presentado al Instituto Nacional de Cultura. Iquitos, Perú. // RIVAS PANDURO, Santiago. 2003. Los asentamientos prehispánicos de la cuenca del río Cachiyacu, Amazonía peruana. 142 pp. Instituto Cultural Runa. Lima, Perú. // JORDÁN BEJARANO, Carlos Francisco. 2006. Informe del proyecto de evaluación arqueológica en el área del Convenio N° 009-2004-FIP entre el Fondo Ítalo Peruano y la Municipalidad de Balsapuerto, Departamento de Loreto, “Proyecto Mejoramiento de Ganado de doble propósito en el Distrito de Balsapuerto”. 44 pp. Presentado al Instituto Nacional de Cultura. Lima, Perú."
AA Balsapuerto 3,-5.843601207455053,-76.56200538355084,Alto Amazonas,Balsapuerto,"RIVAS PANDURO, Santiago. 2000. Prospección Arqueológica en la cuenca del río Cachiyacu, Balsapuerto, Loreto. 107 pp. Informe presentado a la Dra. Ruth Shady Solís, Asesora del proyecto de investigación, del curso Prácticas Pre Profesionales II, Universidad Nacional Mayor de San Marcos. Iquitos, Perú. // RIVAS PANDURO, Santiago. 2001. Prospección Arqueológica en la cuenca del río Cachiyacu, Balsapuerto, Loreto. 80 pp. Informe presentado al Instituto Nacional de Cultura. Iquitos, Perú. // RIVAS PANDURO, Santiago. 2003. Los asentamientos prehispánicos de la cuenca del río Cachiyacu, Amazonía peruana. 142 pp. Instituto Cultural Runa. Lima, Perú."
AA Balsapuerto 4,-5.831431402399614,-76.55141573221394,Alto Amazonas,Balsapuerto,"RIVAS PANDURO, Santiago. 2000. Prospección Arqueológica en la cuenca del río Cachiyacu, Balsapuerto, Loreto. 107 pp. Informe presentado a la Dra. Ruth Shady Solís, Asesora del proyecto de investigación, del curso Prácticas Pre Profesionales II, Universidad Nacional Mayor de San Marcos. Iquitos, Perú. // RIVAS PANDURO, Santiago. 2001. Prospección Arqueológica en la cuenca del río Cachiyacu, Balsapuerto, Loreto. 80 pp. Informe presentado al Instituto Nacional de Cultura. Iquitos, Perú. // RIVAS PANDURO, Santiago. 2003. Los asentamientos prehispánicos de la cuenca del río Cachiyacu, Amazonía peruana. 142 pp. Instituto Cultural Runa. Lima, Perú."
"AA Nuevo Pintuyacu, o Pintuyacu",-5.818149672093729,-76.54387558073644,Alto Amazonas,Balsapuerto,"RIVAS PANDURO, Santiago. 2000. Prospección Arqueológica en la cuenca del río Cachiyacu, Balsapuerto, Loreto. 107 pp. Informe presentado a la Dra. Ruth Shady Solís, Asesora del proyecto de investigación, del curso Prácticas Pre Profesionales II, Universidad Nacional Mayor de San Marcos. Iquitos, Perú. // RIVAS PANDURO, Santiago. 2001. Prospección Arqueológica en la cuenca del río Cachiyacu, Balsapuerto, Loreto. 80 pp. Informe presentado al Instituto Nacional de Cultura. Iquitos, Perú. // RIVAS PANDURO, Santiago. 2003. Los asentamientos prehispánicos de la cuenca del río Cachiyacu, Amazonía peruana. 142 pp. Instituto Cultural Runa. Lima, Perú. // JORDÁN BEJARANO, Carlos Francisco. 2006. Informe del Proyecto de Evaluación Arqueológica en el área del Convenio N° 009-2004-FIP entre el Fondo Ítalo Peruano y la Municipalidad de Balsapuerto, Departamento de Loreto, “Proyecto Mejoramiento de Ganado de doble propósito en el Distrito de Balsapuerto”. 44 pp. Presentado al Instituto Nacional de Cultura. Lima, Perú."
AA Nuevo Junín,-5.796487288761863,-76.54536061989812,Alto Amazonas,Balsapuerto,"RIVAS PANDURO, Santiago. 2000. Prospección Arqueológica en la cuenca del río Cachiyacu, Balsapuerto, Loreto. 107 pp. Informe presentado a la Dra. Ruth Shady Solís, Asesora del proyecto de investigación, del curso Prácticas Pre Profesionales II, Universidad Nacional Mayor de San Marcos. Iquitos, Perú. // RIVAS PANDURO, Santiago. 2001. Prospección Arqueológica en la cuenca del río Cachiyacu, Balsapuerto, Loreto. 80 pp. Informe presentado al Instituto Nacional de Cultura. Iquitos, Perú. // RIVAS PANDURO, Santiago. 2003. Los asentamientos prehispánicos de la cuenca del río Cachiyacu, Amazonía peruana. 142 pp. Instituto Cultural Runa. Lima, Perú. // JORDÁN BEJARANO, Carlos Francisco. 2006. Informe del Proyecto de Evaluación Arqueológica en el área del Convenio N° 009-2004-FIP entre el Fondo Ítalo Peruano y la Municipalidad de Balsapuerto, Departamento de Loreto, “Proyecto Mejoramiento de Ganado de doble propósito en el Distrito de Balsapuerto”. 44 pp. Presentado al Instituto Nacional de Cultura. Lima, Perú."
"AA Nuevo Barranquita, o Montículo Barranquita",-5.802456227343193,-76.52854585004799,Alto Amazonas,Balsapuerto,"RIVAS PANDURO, Santiago. 2000. Prospección Arqueológica en la cuenca del río Cachiyacu, Balsapuerto, Loreto. 107 pp. Informe presentado a la Dra. Ruth Shady Solís, Asesora del proyecto de investigación, del curso Prácticas Pre Profesionales II, Universidad Nacional Mayor de San Marcos. Iquitos, Perú. // RIVAS PANDURO, Santiago. 2001. Prospección Arqueológica en la cuenca del río Cachiyacu, Balsapuerto, Loreto. 80 pp. Informe presentado al Instituto Nacional de Cultura. Iquitos, Perú. // RIVAS PANDURO, Santiago. 2003. Los asentamientos prehispánicos de la cuenca del río Cachiyacu, Amazonía peruana. 142 pp. Instituto Cultural Runa. Lima, Perú. // JORDÁN BEJARANO, Carlos Francisco. 2006. Informe del Proyecto de Evaluación Arqueológica en el área del Convenio N° 009-2004-FIP entre el Fondo Ítalo Peruano y la Municipalidad de Balsapuerto, Departamento de Loreto, “Proyecto Mejoramiento de Ganado de doble propósito en el Distrito de Balsapuerto”. 44 pp. Presentado al Instituto Nacional de Cultura. Lima, Perú."
AA Laguna del Cachiyacu Colorado,-5.90065382080756,-76.7213654874989,Alto Amazonas,Balsapuerto,"RIVAS PANDURO, Santiago 2019. Reported by Santiago Rivas Panduro based on description of La Laguna (Field Museum 2014: 84), analyses of photographs from Corine Vriesendorp y Álvaro del Campo, and interpretion of satellite images from  Google Earth, 2019."
RP Shapajilla 2,-5.867733763245785,-76.55346638638972,Alto Amazonas,Balsapuerto,"RIVAS PANDURO, Santiago. 1999. Investigaciones arqueológicas en el Distrito de Balsapuerto: el enigma de los petroglifos de Balsapuerto. 45 pp. Informe presentado a la Municipalidad Distrital de Balsapuerto. Lima, Perú. // RIVAS PANDURO, Santiago. 2000. Prospección Arqueológica en la cuenca del río Cachiyacu, Balsapuerto, Loreto. 107 pp. Informe presentado a la Dra. Ruth Shady Solís, Asesora del proyecto de investigación, del curso Prácticas Pre Profesionales II, Universidad Nacional Mayor de San Marcos. Iquitos, Perú. // RIVAS PANDURO, Santiago. 2001. Prospección Arqueológica en la cuenca del río Cachiyacu, Balsapuerto, Loreto. 80 pp. Informe presentado al Instituto Nacional de Cultura. Iquitos, Perú."
RP Shapajilla 1,-5.86592317136193,-76.5541657599406,Alto Amazonas,Balsapuerto,"RIVAS PANDURO, Santiago. 1999. Investigaciones arqueológicas en el Distrito de Balsapuerto: el enigma de los petroglifos de Balsapuerto. 45 pp. Informe presentado a la Municipalidad Distrital de Balsapuerto. Lima, Perú. // RIVAS PANDURO, Santiago. 2000. Prospección arqueológica en la cuenca del río Cachiyacu, Balsapuerto, Loreto. 107 pp. Informe presentado a la Dra. Ruth Shady Solís, Asesora del proyecto de investigación, del curso Prácticas Pre Profesionales II, Universidad Nacional Mayor de San Marcos. Iquitos, Perú. // RIVAS PANDURO, Santiago. 2001. Prospección arqueológica en la cuenca del río Cachiyacu, Balsapuerto, Loreto. 80 pp. Informe presentado al Instituto Nacional de Cultura. Iquitos, Perú."
RP Casa de Cumpanamá (también es RTL),-5.874040761924589,-76.52244548312038,Alto Amazonas,Balsapuerto,"RIVAS PANDURO, Santiago. 1999. Investigaciones arqueológicas en el Distrito de Balsapuerto: el enigma de los petroglifos de Balsapuerto. 45 pp. Informe presentado a la Municipalidad Distrital de Balsapuerto. Lima, Perú. // RIVAS PANDURO, Santiago. 2000. Prospección arqueológica en la cuenca del río Cachiyacu, Balsapuerto, Loreto. 107 pp. Informe presentado a la Dra. Ruth Shady Solís, Asesora del proyecto de investigación, del curso Prácticas Pre Profesionales II, Universidad Nacional Mayor de San Marcos. Iquitos, Perú. // RIVAS PANDURO, Santiago. 2001. Prospección Arqueológica en la cuenca del río Cachiyacu, Balsapuerto, Loreto. 80 pp. Informe presentado al Instituto Nacional de Cultura. Iquitos, Perú.  // ECHEVARRÍA LÓPEZ, Gori Tumi. 2006.  Petrograbados en la cuenca del río Cachiyacu. Una aproximación arqueológica en contexto industrial. 15 pp. En Rupestreweb, http://www.rupestreweb.info/cachiyacu.html"
RP Cocina de Cumpanamá (también es RTL),-5.874041622756304,-76.5221294101142,Alto Amazonas,Balsapuerto,"RIVAS PANDURO, Santiago. 1999. Investigaciones arqueológicas en el Distrito de Balsapuerto: el enigma de los petroglifos de Balsapuerto. 45 pp. Informe presentado a la Municipalidad Distrital de Balsapuerto. Lima, Perú. // RIVAS PANDURO, Santiago. 2000. Prospección Arqueológica en la cuenca del río Cachiyacu, Balsapuerto, Loreto. 107 pp. Informe presentado a la Dra. Ruth Shady Solís, Asesora del proyecto de investigación, del curso Prácticas Pre Profesionales II, Universidad Nacional Mayor de San Marcos. Iquitos, Perú. // RIVAS PANDURO, Santiago. 2001. Prospección Arqueológica en la cuenca del río Cachiyacu, Balsapuerto, Loreto. 80 pp. Informe presentado al Instituto Nacional de Cultura. Iquitos, Perú."
RP Cachiyacu 1,-5.862802142068009,-76.57080009112998,Alto Amazonas,Balsapuerto,"RIVAS PANDURO, Santiago. 1999. Investigaciones arqueológicas en el Distrito de Balsapuerto: el enigma de los petroglifos de Balsapuerto. 45 pp. Informe presentado a la Municipalidad Distrital de Balsapuerto. Lima, Perú. // RIVAS PANDURO, Santiago. 2000. Prospección Arqueológica en la cuenca del río Cachiyacu, Balsapuerto, Loreto. 107 pp. Informe presentado a la Dra. Ruth Shady Solís, Asesora del proyecto de investigación, del curso Prácticas Pre Profesionales II, Universidad Nacional Mayor de San Marcos. Iquitos, Perú. // RIVAS PANDURO, Santiago. 2001. Prospección Arqueológica en la cuenca del río Cachiyacu, Balsapuerto, Loreto. 80 pp. Informe presentado al Instituto Nacional de Cultura. Iquitos, Perú."
RP Cachiyacu 2,-5.86167022080089,-76.5518783276479,Alto Amazonas,Balsapuerto,Reported by Santiago Rivas Panduro from field worked conducted in 2015 at PIA Paranapura.
"RP Ojeyacu 1, o Tunu Icha",-5.85857241501072,-76.569930398029,Alto Amazonas,Balsapuerto,"RIVAS PANDURO, Santiago. 2000. Prospección arqueológica en la cuenca del río Cachiyacu, Balsapuerto, Loreto. 107 pp. Informe presentado a la Dra. Ruth Shady Solís, Asesora del proyecto de investigación, del curso Prácticas Pre Profesionales II, Universidad Nacional Mayor de San Marcos. Iquitos, Perú. // RIVAS PANDURO, Santiago. 2001. Prospección arqueológica en la cuenca del río Cachiyacu, Balsapuerto, Loreto. 80 pp. Informe presentado al Instituto Nacional de Cultura. Iquitos, Perú. // RIVAS PANDURO, Santiago. 2003. Los asentamientos prehispánicos de la cuenca del río Cachiyacu, Amazonía peruana. 142 pp. Instituto Cultural Runa. Lima, Perú. // JORDÁN BEJARANO, Carlos Francisco. 2006. Informe del proyecto de evaluación arqueológica en el área del Convenio N° 009-2004-FIP entre el Fondo Ítalo Peruano y la Municipalidad de Balsapuerto, Departamento de Loreto, “Proyecto Mejoramiento de Ganado de doble propósito en el Distrito de Balsapuerto”. 44 pp. Presentado al Instituto Nacional de Cultura. Lima, Perú."
RP Ojeyacu 2,-5.85857233911525,-76.5699574886427,Alto Amazonas,Balsapuerto,"RIVAS PANDURO, Santiago. 1999. Investigaciones arqueológicas en el Distrito de Balsapuerto: el enigma de los petroglifos de Balsapuerto. 45 pp. Informe presentado a la Municipalidad Distrital de Balsapuerto. Lima, Perú. // RIVAS PANDURO, Santiago. 2000. Prospección Arqueológica en la cuenca del río Cachiyacu, Balsapuerto, Loreto. 107 pp. Informe presentado a la Dra. Ruth Shady Solís, Asesora del proyecto de investigación, del curso Prácticas Pre Profesionales II, Universidad Nacional Mayor de San Marcos. Iquitos, Perú. // RIVAS PANDURO, Santiago. 2001. Prospección Arqueológica en la cuenca del río Cachiyacu, Balsapuerto, Loreto. 80 pp. Informe presentado al Instituto Nacional de Cultura. Iquitos, Perú."
RP Ojeyacu 3,-5.8586086450643124,-76.56992145902711,Alto Amazonas,Balsapuerto,"RIVAS PANDURO, Santiago. 1999. Investigaciones arqueológicas en el Distrito de Balsapuerto: el enigma de los petroglifos de Balsapuerto. 45 pp. Informe presentado a la Municipalidad Distrital de Balsapuerto. Lima, Perú. // RIVAS PANDURO, Santiago. 2000. Prospección arqueológica en la cuenca del río Cachiyacu, Balsapuerto, Loreto. 107 pp. Informe presentado a la Dra. Ruth Shady Solís, Asesora del proyecto de investigación, del curso Prácticas Pre Profesionales II, Universidad Nacional Mayor de San Marcos. Iquitos, Perú. // RIVAS PANDURO, Santiago. 2001. Prospección arqueológica en la cuenca del río Cachiyacu, Balsapuerto, Loreto. 80 pp. Informe presentado al Instituto Nacional de Cultura. Iquitos, Perú."
RP Ojeyacu 4,-5.858789326948973,-76.5699851757425,Alto Amazonas,Balsapuerto,"RIVAS PANDURO, Santiago. 1999. Investigaciones arqueológicas en el Distrito de Balsapuerto: el enigma de los petroglifos de Balsapuerto. 45 pp. Informe presentado a la Municipalidad Distrital de Balsapuerto. Lima, Perú. // RIVAS PANDURO, Santiago. 2000. Prospección Arqueológica en la cuenca del río Cachiyacu, Balsapuerto, Loreto. 107 pp. Informe presentado a la Dra. Ruth Shady Solís, Asesora del proyecto de investigación, del curso Prácticas Pre Profesionales II, Universidad Nacional Mayor de San Marcos. Iquitos, Perú. // RIVAS PANDURO, Santiago. 2001. Prospección Arqueológica en la cuenca del río Cachiyacu, Balsapuerto, Loreto. 80 pp. Informe presentado al Instituto Nacional de Cultura. Iquitos, Perú."
RP Ojeyacu 5,-5.858753104553894,-76.57000313509926,Alto Amazonas,Balsapuerto,"RIVAS PANDURO, Santiago. 1999. Investigaciones arqueológicas en el Distrito de Balsapuerto: el enigma de los petroglifos de Balsapuerto. 45 pp. Informe presentado a la Municipalidad Distrital de Balsapuerto. Lima, Perú. // RIVAS PANDURO, Santiago. 2000. Prospección Arqueológica en la cuenca del río Cachiyacu, Balsapuerto, Loreto. 107 pp. Informe presentado a la Dra. Ruth Shady Solís, Asesora del proyecto de investigación, del curso Prácticas Pre Profesionales II, Universidad Nacional Mayor de San Marcos. Iquitos, Perú. // RIVAS PANDURO, Santiago. 2001. Prospección arqueológica en la cuenca del río Cachiyacu, Balsapuerto, Loreto. 80 pp. Informe presentado al Instituto Nacional de Cultura. Iquitos, Perú."
RTL Ojeyacu 6 [RTL I],-5.85848180843169,-76.569993356826,Alto Amazonas,Balsapuerto,"RIVAS PANDURO, Santiago. 2011. Informe N° 075-2011/AA/MC-DRC-L/SRP. 27 pp. Informe sobre visita al Distrito de Balsapuerto para reconocer y registrar los petroglifos de las cuencas del Cachiyacu y Armanayacu, a solicitud de la ONG Terra Nuova. Presentado a la Dirección Desconcentrada de Cultura del Ministerio de Cultura."
RTL Ojeyacu 7 [RTL II],-5.85850898787573,-76.5699753722091,Alto Amazonas,Balsapuerto,"RIVAS PANDURO, Santiago. 2011. Informe N° 075-2011/AA/MC-DRC-L/SRP. 27 pp. Informe sobre visita al Distrito de Balsapuerto para reconocer y registrar los petroglifos de las cuencas del Cachiyacu y Armanayacu, a solicitud de la ONG Terra Nuova. Presentado a la Dirección Desconcentrada de Cultura del Ministerio de Cultura."
RTL Ojeyacu 8 [RTL III],-5.85850906377124,-76.5699482815988,Alto Amazonas,Balsapuerto,"RIVAS PANDURO, Santiago. 2011. Informe N° 075-2011/AA/MC-DRC-L/SRP. 27 pp. Informe sobre visita al Distrito de Balsapuerto para reconocer y registrar los petroglifos de las cuencas del Cachiyacu y Armanayacu, a solicitud de la ONG Terra Nuova. Presentado a la Dirección Desconcentrada de Cultura del Ministerio de Cultura."
RTL Ojeyacu 9 [RTL IV],-5.85858130616725,-76.5699846045195,Alto Amazonas,Balsapuerto,"RIVAS PANDURO, Santiago. 2011. Informe N° 075-2011/AA/MC-DRC-L/SRP. 27 pp. Informe sobre visita al Distrito de Balsapuerto para reconocer y registrar los petroglifos de las cuencas del Cachiyacu y Armanayacu, a solicitud de la ONG Terra Nuova. Presentado a la Dirección Desconcentrada de Cultura del Ministerio de Cultura."
RTL Ojeyacu 10 [RTL V],-5.85850888667967,-76.5700114930224,Alto Amazonas,Balsapuerto,"RIVAS PANDURO, Santiago. 2011. Informe N° 075-2011/AA/MC-DRC-L/SRP. 27 pp. Informe sobre visita al Distrito de Balsapuerto para reconocer y registrar los petroglifos de las cuencas del Cachiyacu y Armanayacu, a solicitud de la ONG Terra Nuova. Presentado a la Dirección Desconcentrada de Cultura del Ministerio de Cultura."
RTL Ojeyacu 11 [RTL VI],-5.85858117966951,-76.5700297555416,Alto Amazonas,Balsapuerto,"RIVAS PANDURO, Santiago. 2011. Informe N° 075-2011/AA/MC-DRC-L/SRP. 27 pp. Informe sobre visita al Distrito de Balsapuerto para reconocer y registrar los petroglifos de las cuencas del Cachiyacu y Armanayacu, a solicitud de la ONG Terra Nuova. Presentado a la Dirección Desconcentrada de Cultura del Ministerio de Cultura."
RTL Ojeyacu 12 [RTL VII],-5.85851772722894,-76.5700837599119,Alto Amazonas,Balsapuerto,"RIVAS PANDURO, Santiago. 2011. Informe N° 075-2011/AA/MC-DRC-L/SRP. 27 pp. Informe sobre visita al Distrito de Balsapuerto para reconocer y registrar los petroglifos de las cuencas del Cachiyacu y Armanayacu, a solicitud de la ONG Terra Nuova. Presentado a la Dirección Desconcentrada de Cultura del Ministerio de Cultura."
RTL Ojeyacu 13 [RTL VIII],-5.85849979313216,-76.5700295281649,Alto Amazonas,Balsapuerto,"RIVAS PANDURO, Santiago. 2011. Informe N° 075-2011/AA/MC-DRC-L/SRP. 27 pp. Informe sobre visita al Distrito de Balsapuerto para reconocer y registrar los petroglifos de las cuencas del Cachiyacu y Armanayacu, a solicitud de la ONG Terra Nuova. Presentado a la Dirección Desconcentrada de Cultura del Ministerio de Cultura."
RTL Ojeyacu 14 [RTL IX],-5.85912416139664,-76.5698867880546,Alto Amazonas,Balsapuerto,"RIVAS PANDURO, Santiago. 2011. Informe N° 075-2011/AA/MC-DRC-L/SRP. 27 pp. Informe sobre visita al Distrito de Balsapuerto para reconocer y registrar los petroglifos de las cuencas del Cachiyacu y Armanayacu, a solicitud de la ONG Terra Nuova. Presentado a la Dirección Desconcentrada de Cultura del Ministerio de Cultura. // Santiago Rivas Panduro, apuntes de campo 2015."
RTL Ojeyacu 15 [RTL X],-5.85933245282321,-76.5697790065372,Alto Amazonas,Balsapuerto,"RIVAS PANDURO, Santiago. 2011. Informe N° 075-2011/AA/MC-DRC-L/SRP. 27 pp. Informe sobre visita al Distrito de Balsapuerto para reconocer y registrar los petroglifos de las cuencas del Cachiyacu y Armanayacu, a solicitud de la ONG Terra Nuova. Presentado a la Dirección Desconcentrada de Cultura del Ministerio de Cultura. // Santiago Rivas Panduro, apuntes de campo 2015"
RP Piedra del Amor 1,-5.872473146413822,-76.58539330424384,Alto Amazonas,Balsapuerto,"RIVAS PANDURO, Santiago. 1999. Investigaciones arqueológicas en el Distrito de Balsapuerto: el enigma de los petroglifos de Balsapuerto. 45 pp. Informe presentado a la Municipalidad Distrital de Balsapuerto. Lima, Perú. // RIVAS PANDURO, Santiago. 2000. Prospección Arqueológica en la cuenca del río Cachiyacu, Balsapuerto, Loreto. 107 pp. Informe presentado a la Dra. Ruth Shady Solís, Asesora del proyecto de investigación, del curso Prácticas Pre Profesionales II, Universidad Nacional Mayor de San Marcos. Iquitos, Perú. // RIVAS PANDURO, Santiago. 2001. Prospección Arqueológica en la cuenca del río Cachiyacu, Balsapuerto, Loreto. 80 pp. Informe presentado al Instituto Nacional de Cultura. Iquitos, Perú."
RP Piedra del Amor 2,-5.87245502751268,-76.5853932632194,Alto Amazonas,Balsapuerto,"RIVAS PANDURO, Santiago. 1999. Investigaciones arqueológicas en el Distrito de Balsapuerto: el enigma de los petroglifos de Balsapuerto. 45 pp. Informe presentado a la Municipalidad Distrital de Balsapuerto. Lima, Perú. // RIVAS PANDURO, Santiago. 2000. Prospección Arqueológica en la cuenca del río Cachiyacu, Balsapuerto, Loreto. 107 pp. Informe presentado a la Dra. Ruth Shady Solís, Asesora del proyecto de investigación, del curso Prácticas Pre Profesionales II, Universidad Nacional Mayor de San Marcos. Iquitos, Perú. // RIVAS PANDURO, Santiago. 2001. Prospección Arqueológica en la cuenca del río Cachiyacu, Balsapuerto, Loreto. 80 pp. Informe presentado al Instituto Nacional de Cultura. Iquitos, Perú."
AA Nueva Luz,-5.85174863697723,-76.56213634958755,Alto Amazonas,Balsapuerto,"RIVAS PANDURO, Santiago. 2011. Informe N° 075-2011/AA/MC-DRC-L/SRP. 27 pp. Informe sobre visita al Distrito de Balsapuerto para reconocer y registrar los petroglifos de las cuencas del Cachiyacu y Armanayacu, a solicitud de la ONG Terra Nuova. Presentado a la Dirección Desconcentrada de Cultura del Ministerio de Cultura."
AA Puerto Libre,-5.86211084480322,-76.54952259757307,Alto Amazonas,Balsapuerto,"RIVAS PANDURO, Santiago. 2011. Informe N° 075-2011/AA/MC-DRC-L/SRP. 27 pp. Informe sobre visita al Distrito de Balsapuerto para reconocer y registrar los petroglifos de las cuencas del Cachiyacu y Armanayacu, a solicitud de la ONG Terra Nuova. Presentado a la Dirección Desconcentrada de Cultura del Ministerio de Cultura."
AA Barrio Canoa Puerto,-5.849782512105335,-76.56349444637094,Alto Amazonas,Balsapuerto,"JORDÁN BEJARANO, Carlos Francisco. 2006. Informe del proyecto de evaluación arqueológica en el área del Convenio N° 009-2004-FIP entre el Fondo Ítalo Peruano y la Municipalidad de Balsapuerto, Departamento de Loreto, “Proyecto Mejoramiento de Ganado de doble propósito en el Distrito de Balsapuerto”. 44 pp. Presentado al Instituto Nacional de Cultura. Lima, Perú."
AA San Lorenzo,-5.841089244919518,-76.54162658097118,Alto Amazonas,Balsapuerto,"JORDÁN BEJARANO, Carlos Francisco. 2006. Informe del proyecto de evaluación arqueológica en el área del Convenio N° 009-2004-FIP entre el Fondo Ítalo Peruano y la Municipalidad de Balsapuerto, Departamento de Loreto, “Proyecto Mejoramiento de Ganado de doble propósito en el Distrito de Balsapuerto”. 44 pp. Presentado al Instituto Nacional de Cultura. Lima, Perú."
RP Chayahuita Roca A,-5.86556953121264,-76.4811432989451,Alto Amazonas,Balsapuerto,"ECHEVARRÍA LÓPEZ, Gori Tumi. 2006.  Petrograbados en la cuenca del río Cachiyacu. Una aproximación arqueológica en contexto industrial. 15 pp. En Rupestreweb, http://www.rupestreweb.info/cachiyacu.html"
RP Chayahuita Roca B,-5.86556950731631,-76.4811523296373,Alto Amazonas,Balsapuerto,"ECHEVARRÍA LÓPEZ, Gori Tumi. 2006.  Petrograbados en la cuenca del río Cachiyacu. Una aproximación arqueológica en contexto industrial. 15 pp. En Rupestreweb, http://www.rupestreweb.info/cachiyacu.html"
RP Chayahuita Roca C,-5.86557855063871,-76.4811523535004,Alto Amazonas,Balsapuerto,"ECHEVARRÍA LÓPEZ, Gori Tumi. 2006.  Petrograbados en la cuenca del río Cachiyacu. Una aproximación arqueológica en contexto industrial. 15 pp. En Rupestreweb, http://www.rupestreweb.info/cachiyacu.html"
RP Porotoyacu 1,-5.910331369223242,-76.4890018271533,Alto Amazonas,Balsapuerto,"RIVAS PANDURO, Santiago. 2000. Prospección arqueológica en la cuenca del río Cachiyacu, Balsapuerto, Loreto. 107 pp. Informe presentado a la Dra. Ruth Shady Solís, Asesora del proyecto de investigación, del curso Prácticas Pre Profesionales II, Universidad Nacional Mayor de San Marcos. Iquitos, Perú. // RIVAS PANDURO, Santiago. 2001. Prospección arqueológica en la cuenca del río Cachiyacu, Balsapuerto, Loreto. 80 pp. Informe presentado al Instituto Nacional de Cultura. Iquitos, Perú."
RP Porotoyacu 2,-5.91047648882214,-76.4888306261635,Alto Amazonas,Balsapuerto,"RIVAS PANDURO, Santiago. 2000. Prospección arqueológica en la cuenca del río Cachiyacu, Balsapuerto, Loreto. 107 pp. Informe presentado a la Dra. Ruth Shady Solís, Asesora del proyecto de investigación, del curso Prácticas Pre Profesionales II, Universidad Nacional Mayor de San Marcos. Iquitos, Perú. // RIVAS PANDURO, Santiago. 2001. Prospección arqueológica en la cuenca del río Cachiyacu, Balsapuerto, Loreto. 80 pp. Informe presentado al Instituto Nacional de Cultura. Iquitos, Perú."
RP Porotoyacu 3,-5.91150745013608,-76.4921930853118,Alto Amazonas,Balsapuerto,"RIVAS PANDURO, Santiago. 2000. Prospección arqueológica en la cuenca del río Cachiyacu, Balsapuerto, Loreto. 107 pp. Informe presentado a la Dra. Ruth Shady Solís, Asesora del proyecto de investigación, del curso Prácticas Pre Profesionales II, Universidad Nacional Mayor de San Marcos. Iquitos, Perú. // RIVAS PANDURO, Santiago. 2001. Prospección arqueológica en la cuenca del río Cachiyacu, Balsapuerto, Loreto. 80 pp. Informe presentado al Instituto Nacional de Cultura. Iquitos, Perú."
RP Cucharayacu 1,-5.90805278751223,-76.4820957378412,Alto Amazonas,Balsapuerto,"RIVAS PANDURO, Santiago. 2000. Prospección arqueológica en la cuenca del río Cachiyacu, Balsapuerto, Loreto. 107 pp. Informe presentado a la Dra. Ruth Shady Solís, Asesora del proyecto de investigación, del curso Prácticas Pre Profesionales II, Universidad Nacional Mayor de San Marcos. Iquitos, Perú. // RIVAS PANDURO, Santiago. 2001. Prospección arqueológica en la cuenca del río Cachiyacu, Balsapuerto, Loreto. 80 pp. Informe presentado al Instituto Nacional de Cultura. Iquitos, Perú."
RP Cucharayacu 2,-5.90831468205479,-76.4822319060482,Alto Amazonas,Balsapuerto,"RIVAS PANDURO, Santiago. 2000. Prospección arqueológica en la cuenca del río Cachiyacu, Balsapuerto, Loreto. 107 pp. Informe presentado a la Dra. Ruth Shady Solís, Asesora del proyecto de investigación, del curso Prácticas Pre Profesionales II, Universidad Nacional Mayor de San Marcos. Iquitos, Perú. // RIVAS PANDURO, Santiago. 2001. Prospección arqueológica en la cuenca del río Cachiyacu, Balsapuerto, Loreto. 80 pp. Informe presentado al Instituto Nacional de Cultura. Iquitos, Perú."
RP Cucharayacu 3,-5.902610737011853,-76.48472744589958,Alto Amazonas,Balsapuerto,"RIVAS PANDURO, Santiago. 2000. Prospección Arqueológica en la cuenca del río Cachiyacu, Balsapuerto, Loreto. 107 pp. Informe presentado a la Dra. Ruth Shady Solís, Asesora del proyecto de investigación, del curso Prácticas Pre Profesionales II, Universidad Nacional Mayor de San Marcos. Iquitos, Perú. // RIVAS PANDURO, Santiago. 2001. Prospección Arqueológica en la cuenca del río Cachiyacu, Balsapuerto, Loreto. 80 pp. Informe presentado al Instituto Nacional de Cultura. Iquitos, Perú."
RP Cucharayacu 4,-5.891430006769211,-76.49267221071855,Alto Amazonas,Balsapuerto,"RIVAS PANDURO, Santiago. 2000. Prospección arqueológica en la cuenca del río Cachiyacu, Balsapuerto, Loreto. 107 pp. Informe presentado a la Dra. Ruth Shady Solís, Asesora del proyecto de investigación, del curso Prácticas Pre Profesionales II, Universidad Nacional Mayor de San Marcos. Iquitos, Perú. // RIVAS PANDURO, Santiago. 2001. Prospección arqueológica en la cuenca del río Cachiyacu, Balsapuerto, Loreto. 80 pp. Informe presentado al Instituto Nacional de Cultura. Iquitos, Perú."
AA Porotoyacu 4,-5.920030353499273,-76.50408340964306,Alto Amazonas,Balsapuerto,"RIVAS PANDURO, Santiago. 2011. Informe N° 075-2011/AA/MC-DRC-L/SRP. 27 pp. Informe sobre visita al Distrito de Balsapuerto para reconocer y registrar los petroglifos de las cuencas del Cachiyacu y Armanayacu, a solicitud de la ONG Terra Nuova. Presentado a la Dirección Desconcentrada de Cultura del Ministerio de Cultura."
RP Macamboyacu 1,-5.912879378432505,-76.50991643773436,Alto Amazonas,Balsapuerto,"RIVAS PANDURO, Santiago. 2011. Informe N° 075-2011/AA/MC-DRC-L/SRP. 27 pp. Informe sobre visita al Distrito de Balsapuerto para reconocer y registrar los petroglifos de las cuencas del Cachiyacu y Armanayacu, a solicitud de la ONG Terra Nuova. Presentado a la Dirección Desconcentrada de Cultura del Ministerio de Cultura."
RP Macamboyacu 2,-5.913546401852005,-76.50738944923218,Alto Amazonas,Balsapuerto,"RIVAS PANDURO, Santiago. 2011. Informe N° 075-2011/AA/MC-DRC-L/SRP. 27 pp. Informe sobre visita al Distrito de Balsapuerto para reconocer y registrar los petroglifos de las cuencas del Cachiyacu y Armanayacu, a solicitud de la ONG Terra Nuova. Presentado a la Dirección Desconcentrada de Cultura del Ministerio de Cultura."
RP Macamboyacu 3,-5.91360957333068,-76.5074257549075,Alto Amazonas,Balsapuerto,Reported by Santiago Rivas Panduro from field worked conducted in 2015 at PIA Paranapura.
RP Macamboyacu 4,-5.91360048109523,-76.5074437931394,Alto Amazonas,Balsapuerto,Reported by Santiago Rivas Panduro from field worked conducted in 2015 at PIA Paranapura.
RP Macamboyacu 5,-5.9135914133784,-76.5074528000117,Alto Amazonas,Balsapuerto,Reported by Santiago Rivas Panduro from field worked conducted in 2015 at PIA Paranapura.
RTL Macamboyacu 6,-5.91361851845279,-76.5074619048319,Alto Amazonas,Balsapuerto,Reported by Santiago Rivas Panduro from field worked conducted in 2015 at PIA Paranapura.
RP Santa Sofía 3,-5.90473621479101,-76.4744102294155,Alto Amazonas,Balsapuerto,"OREFICI, Guiseppe; y Santiago RIVAS PANDURO. 2013. Los petroglifos de Cumpanamá: un estudio de dieciséis sitios arqueológicos relacionados del área de Balsapuerto, Yurimaguas y Tarapoto. Pp 89-162. Lo que las piedras cuentan: Cumpanamá y los petroglifos de Balsapuerto. 185 pp. Terra Nuova, Cooperazione Italiana, CAAAP, CORPI. Lima, Perú."
RP Santa Sofía 4,-5.90479047481519,-76.4744103729012,Alto Amazonas,Balsapuerto,"OREFICI, Guiseppe; y Santiago RIVAS PANDURO. 2013. Los petroglifos de Cumpanamá: un estudio de dieciséis sitios arqueológicos relacionados del área de Balsapuerto, Yurimaguas y Tarapoto. Pp 89-162. Lo que las piedras cuentan: Cumpanamá y los petroglifos de Balsapuerto. 185 pp. Terra Nuova, Cooperazione Italiana, CAAAP, CORPI. Lima, Perú."
RP Santa Sofía 5,-5.90296962898699,-76.4721748049796,Alto Amazonas,Balsapuerto,"OREFICI, Guiseppe; y Santiago RIVAS PANDURO. 2013. Los petroglifos de Cumpanamá: un estudio de dieciséis sitios arqueológicos relacionados del área de Balsapuerto, Yurimaguas y Tarapoto. Pp 89-162. Lo que las piedras cuentan: Cumpanamá y los petroglifos de Balsapuerto. 185 pp. Terra Nuova, Cooperazione Italiana, CAAAP, CORPI. Lima, Perú."
RP Porotoyacu 5,-5.918333803026511,-76.50276021995326,Alto Amazonas,Balsapuerto,"RIVAS PANDURO, Santiago. 2011. Informe N° 075-2011/AA/MC-DRC-L/SRP. 27 pp. Informe sobre visita al Distrito de Balsapuerto para reconocer y registrar los petroglifos de las cuencas del Cachiyacu y Armanayacu, a solicitud de la ONG Terra Nuova. Presentado a la Dirección Desconcentrada de Cultura del Ministerio de Cultura."
Nuevo Yarina,-4.252741077741421,-76.93019232393266,Datem del Marañón,Pastaza,"RIVAS PANDURO, Santiago. 2007. Arqueología Amazónica. Componente temático para la mesozonificación ecológica y económica de las cuencas de los ríos Pastaza y Morona. 113 pp. Informe Final presentado al PROFONAMPE-UNAP. Iquitos, Perú. // RIVAS PANDURO, Santiago; Ada MEDINA MENDOZA; Julio ABANTO LLAQUE; Richer RÍOS ZUMAETA; Corina CALDAS CARRILLO. 2007. Arqueología de las cuencas del Pastaza y Morona. Reporte de zonificación ecológica económica. Pp. 269-302. Amazonía Peruana, Tomo XV, N° 31. CAAAP. Lima, Perú."
Sumbachicocha,-4.305272148902187,-76.916372136536,Datem del Marañón,Pastaza,"RIVAS PANDURO, Santiago. 2007. Arqueología Amazónica. Componente temático para la mesozonificación ecológica y económica de las cuencas de los ríos Pastaza y Morona. 113 pp. Informe Final presentado al PROFONAMPE-UNAP. Iquitos, Perú. // RIVAS PANDURO, Santiago; Ada MEDINA MENDOZA; Julio ABANTO LLAQUE; Richer RÍOS ZUMAETA; Corina CALDAS CARRILLO. 2007. Arqueología de las cuencas del Pastaza y Morona. Reporte de zonificación ecológica económica. Pp. 269-302. Amazonía Peruana, Tomo XV, N° 31. CAAAP. Lima, Perú."
Hifco,-4.267097333476387,-76.92377947809968,Datem del Marañón,Pastaza,"RIVAS PANDURO, Santiago. 2007. Arqueología Amazónica. Componente Temático para la Mesozonificación Ecológica y económica de las cuencas de los ríos Pastaza y Morona. 113 pp. Informe Final presentado al PROFONAMPE-UNAP. Iquitos, Perú. // RIVAS PANDURO, Santiago; Ada MEDINA MENDOZA; Julio ABANTO LLAQUE; Richer RÍOS ZUMAETA; Corina CALDAS CARRILLO. 2007. Arqueología de las cuencas del Pastaza y Morona. Reporte de zonificación ecológica económica. Pp. 269-302. Amazonía Peruana, Tomo XV, N° 31. CAAAP. Lima, Perú."
Puerto Egipto,-4.177596117708766,-76.9912968215481,Datem del Marañón,Pastaza,"RIVAS PANDURO, Santiago. 2007. Arqueología Amazónica. Componente temático para la mesozonificación ecológica y económica de las cuencas de los ríos Pastaza y Morona. 113 pp. Informe Final presentado al PROFONAMPE-UNAP. Iquitos, Perú. // RIVAS PANDURO, Santiago; Ada MEDINA MENDOZA; Julio ABANTO LLAQUE; Richer RÍOS ZUMAETA; Corina CALDAS CARRILLO. 2007. Arqueología de las cuencas del Pastaza y Morona. Reporte de zonificación ecológica económica. Pp. 269-302. Amazonía Peruana, Tomo XV, N° 31. CAAAP. Lima, Perú."
Caimito del Chapuli,-4.1858279690550155,-76.9753963336922,Datem del Marañón,Pastaza,"RIVAS PANDURO, Santiago. 2007. Arqueología Amazónica. Componente temático para la mesozonificación ecológica y económica de las cuencas de los ríos Pastaza y Morona. 113 pp. Informe Final presentado al PROFONAMPE-UNAP. Iquitos, Perú. // RIVAS PANDURO, Santiago; Ada MEDINA MENDOZA; Julio ABANTO LLAQUE; Richer RÍOS ZUMAETA; Corina CALDAS CARRILLO. 2007. Arqueología de las cuencas del Pastaza y Morona. Reporte de zonificación ecológica económica. Pp. 269-302. Amazonía Peruana, Tomo XV, N° 31. CAAAP. Lima, Perú."
Quebrada Mashingashi,-4.135972216652838,-76.91702852222195,Datem del Marañón,Pastaza,"RIVAS PANDURO, Santiago. 2007. Arqueología Amazónica. Componente temático para la mesozonificación ecológica y económica de las cuencas de los ríos Pastaza y Morona. 113 pp. Informe Final presentado al PROFONAMPE-UNAP. Iquitos, Perú. // RIVAS PANDURO, Santiago; Ada MEDINA MENDOZA; Julio ABANTO LLAQUE; Richer RÍOS ZUMAETA; Corina CALDAS CARRILLO. 2007. Arqueología de las cuencas del Pastaza y Morona. Reporte de zonificación ecológica económica. Pp. 269-302. Amazonía Peruana, Tomo XV, N° 31. CAAAP. Lima, Perú."
Tangana-Barranquillo,-4.19179029794581,-76.95586054983492,Datem del Marañón,Pastaza,"RIVAS PANDURO, Santiago. 2007. Arqueología Amazónica. Componente temático para la mesozonificación ecológica y económica de las cuencas de los ríos Pastaza y Morona. 113 pp. Informe Final presentado al PROFONAMPE-UNAP. Iquitos, Perú. // RIVAS PANDURO, Santiago; Ada MEDINA MENDOZA; Julio ABANTO LLAQUE; Richer RÍOS ZUMAETA; Corina CALDAS CARRILLO. 2007. Arqueología de las cuencas del Pastaza y Morona. Reporte de zonificación ecológica económica. Pp. 269-302. Amazonía Peruana, Tomo XV, N° 31. CAAAP. Lima, Perú."
San Ramón,-4.214434885652277,-76.93966159518942,Datem del Marañón,Pastaza,"RIVAS PANDURO, Santiago. 2007. Arqueología Amazónica. Componente temático para la mesozonificación ecológica y económica de las cuencas de los ríos Pastaza y Morona. 113 pp. Informe Final presentado al PROFONAMPE-UNAP. Iquitos, Perú. // RIVAS PANDURO, Santiago; Ada MEDINA MENDOZA; Julio ABANTO LLAQUE; Richer RÍOS ZUMAETA; Corina CALDAS CARRILLO. 2007. Arqueología de las cuencas del Pastaza y Morona. Reporte de zonificación ecológica económica. Pp. 269-302. Amazonía Peruana, Tomo XV, N° 31. CAAAP. Lima, Perú."
Nuevo Belén,-4.344383373579718,-76.89629363573414,Datem del Marañón,Pastaza,"RIVAS PANDURO, Santiago. 2007. Arqueología Amazónica. Componente temático para la mesozonificación ecológica y económica de las cuencas de los ríos Pastaza y Morona. 113 pp. Informe Final presentado al PROFONAMPE-UNAP. Iquitos, Perú. // RIVAS PANDURO, Santiago; Ada MEDINA MENDOZA; Julio ABANTO LLAQUE; Richer RÍOS ZUMAETA; Corina CALDAS CARRILLO. 2007. Arqueología de las cuencas del Pastaza y Morona. Reporte de zonificación ecológica económica. Pp. 269-302. Amazonía Peruana, Tomo XV, N° 31. CAAAP. Lima, Perú."
Domingococha,-4.3539509559757565,-76.88859797518495,Datem del Marañón,Pastaza,"RIVAS PANDURO, Santiago. 2007. Arqueología Amazónica. Componente temático para la mesozonificación ecológica y económica de las cuencas de los ríos Pastaza y Morona. 113 pp. Informe Final presentado al PROFONAMPE-UNAP. Iquitos, Perú. // RIVAS PANDURO, Santiago; Ada MEDINA MENDOZA; Julio ABANTO LLAQUE; Richer RÍOS ZUMAETA; Corina CALDAS CARRILLO. 2007. Arqueología de las cuencas del Pastaza y Morona. Reporte de zonificación ecológica económica. Pp. 269-302. Amazonía Peruana, Tomo XV, N° 31. CAAAP. Lima, Perú."
Huambracocha 1,-4.386220168283366,-76.85669971493961,Datem del Marañón,Pastaza,"RIVAS PANDURO, Santiago. 2007. Arqueología Amazónica. Componente temático para la mesozonificación ecológica y económica de las cuencas de los ríos Pastaza y Morona. 113 pp. Informe Final presentado al PROFONAMPE-UNAP. Iquitos, Perú. // RIVAS PANDURO, Santiago; Ada MEDINA MENDOZA; Julio ABANTO LLAQUE; Richer RÍOS ZUMAETA; Corina CALDAS CARRILLO. 2007. Arqueología de las cuencas del Pastaza y Morona. Reporte de zonificación ecológica económica. Pp. 269-302. Amazonía Peruana, Tomo XV, N° 31. CAAAP. Lima, Perú."
Huambracocha 2,-4.3902893153334785,-76.85661067890037,Datem del Marañón,Pastaza,"RIVAS PANDURO, Santiago. 2007. Arqueología Amazónica. Componente temático para la mesozonificación ecológica y económica de las cuencas de los ríos Pastaza y Morona. 113 pp. Informe Final presentado al PROFONAMPE-UNAP. Iquitos, Perú. // RIVAS PANDURO, Santiago; Ada MEDINA MENDOZA; Julio ABANTO LLAQUE; Richer RÍOS ZUMAETA; Corina CALDAS CARRILLO. 2007. Arqueología de las cuencas del Pastaza y Morona. Reporte de zonificación ecológica económica. Pp. 269-302. Amazonía Peruana, Tomo XV, N° 31. CAAAP. Lima, Perú."
Puerto Requena,-4.2118410404887285,-76.75278430743494,Datem del Marañón,Andoas,"RIVAS PANDURO, Santiago. 2007. Arqueología Amazónica. Componente temático para la mesozonificación ecológica y Económica de las cuencas de los ríos Pastaza y Morona. 113 pp. Informe Final presentado al PROFONAMPE-UNAP. Iquitos, Perú. // RIVAS PANDURO, Santiago; Ada MEDINA MENDOZA; Julio ABANTO LLAQUE; Richer RÍOS ZUMAETA; Corina CALDAS CARRILLO. 2007. Arqueología de las cuencas del Pastaza y Morona. Reporte de zonificación ecológica económica. Pp. 269-302. Amazonía Peruana, Tomo XV, N° 31. CAAAP. Lima, Perú."
Huagramona,-3.08006356348906,-76.4338382206924,Datem del Marañón,Andoas,"MEDINA MENDOZA, Ada. 2005. Proyecto de evaluación arqueológica con excavaciones en el área sujeta a actividades exploratorias del Lote 101 - Pastaza, Departamento de Loreto. 500 pp. Informe presentado al Instituto Nacional de Cultura. Lima, Perú. // WALSH PERÚ. 2006. Estudio de Impacto Ambiental y Social de la Prospección Sísmica 3D Perforación Exploratoria del Lote 101. Volumen IV: Línea Base Arqueológica, para la empresa Talisman Energy. 20 pp. Lima, Perú. // RIVAS PANDURO, Santiago. 2007. Arqueología Amazónica. Componente temático para la mesozonificación ecológica y económica de las cuencas de los ríos Pastaza y Morona. 113 pp. Informe Final presentado al PROFONAMPE-UNAP. Iquitos, Perú. // RIVAS PANDURO, Santiago; Ada MEDINA MENDOZA; Julio ABANTO LLAQUE; Richer RÍOS ZUMAETA; Corina CALDAS CARRILLO. 2008. Arqueología de las cuencas del Pastaza y Morona. Reporte de zonificación ecológica económica. Pp. 269-302. Amazonía Peruana, Tomo XV, N° 31. CAAAP. Lima, Perú. // MALLCO HUARCAYA, Rafael. 2016. Identificación y registro de sitios y zonas culturales intangibles de interés cultural en los ríos Pastaza, Tigre, Corrientes y Marañón, en el marco del Proyecto de ampliación del servicio de Catastro, Titulación y Registro de Tierras en las comunidades nativas de las cuencas de los ríos Pastaza, Tigre, Corrientes y Marañón, de las Provincias de Datem del Marañón y Loreto, región Loreto, con Código SNIP 316426. 208 pp. Informe Final presentado al Proyecto Titulación 4 Cuencas (Código SNIP 316426), Dirección Regional Agraria de Loreto, Gerencia de Desarrollo Económico – Gobierno Regional de Loreto. Iquitos, Perú."
